$RAZDA,170152.40,12,09,2023,00,00*6F
$RADTM,W84,,,,,,,*15
$HEHDT,347.3,T*2C
$TIROT,-44.6,A*20
$SDDPT,8.1,,*5C
$GPRMC,170152.90,A,5000.590,N,00958.121,W,11.8,347.0,2023,09,12,A,S*04
$GPROT,-60.4,A*2E
$GPGLL,5000.591,N,00958.122,W,170153.10,A,A*76
$IIRSA,-3.0,A,,V*57
$IIRPM,S,1,975,100,A*4A
$IIRPM,S,2,1000,100,A*73
$GPHDT,346.4,T*30
$HEROT,-77.8,A*3E
$GPGGA,170153.70,5000.593,N,00958.122,W,1,11,6,24.2,M,52.1,M,,*5D
$RAZDA,170153.80,12,09,2023,00,00*62
$RADTM,W84,,,,,,,*15
$HEHDT,345.5,T*28
$TIROT,-83.4,A*29
$SDDPT,8.1,,*5C
$GPRMC,170154.30,A,5000.595,N,00958.123,W,12.4,345.1,2023,09,12,A,S*03
$GPROT,-80.5,A*21
$GPGLL,5000.596,N,00958.124,W,170154.50,A,A*74
$IIRSA,-3.0,A,,V*57
$IIRPM,S,1,975,100,A*4A
$IIRPM,S,2,1000,100,A*73
$GPHDT,344.4,T*32
$HEROT,-68.5,A*3D
$GPGGA,170155.10,5000.598,N,00958.125,W,1,11,6,24.2,M,52.1,M,,*51
$RAZDA,170155.20,12,09,2023,00,00*6E
$RADTM,W84,,,,,,,*15
$HEHDT,343.7,T*2C
$TIROT,-46.5,A*21
$SDDPT,8.1,,*5C
$GPRMC,170155.70,A,5000.600,N,00958.126,W,13.0,343.5,2023,09,12,A,S*0B
$GPROT,-37.8,A*20
$GPGLL,5000.601,N,00958.126,W,170155.90,A,A*76
$IIRSA,-3.0,A,,V*57
$IIRPM,S,1,975,100,A*4A
$IIRPM,S,2,1000,100,A*73
$GPHDT,343.2,T*33
$HEROT,-14.7,A*34
$GPGGA,170156.50,5000.603,N,00958.127,W,1,11,6,24.2,M,52.1,M,,*55
$RAZDA,170156.60,12,09,2023,00,00*69
$RADTM,W84,,,,,,,*15
$HEHDT,343.1,T*2A
$TIROT,1.3,A*39
$SDDPT,8.1,,*5C
$GPRMC,170157.10,A,5000.605,N,00958.128,W,13.5,343.1,2023,09,12,A,S*05
$GPROT,4.0,A*35
$GPGLL,5000.606,N,00958.129,W,170157.30,A,A*76
$IIRSA,-6.0,A,,V*52
$IIRPM,S,1,975,100,A*4A
$IIRPM,S,2,1000,100,A*73
$GPHDT,343.1,T*30
$HEROT,-4.2,A*00
$GPGGA,170157.90,5000.609,N,00958.130,W,1,11,6,24.2,M,52.1,M,,*54
$RAZDA,170158.00,12,09,2023,00,00*61
$RADTM,W84,,,,,,,*15
$HEHDT,343.0,T*2B
$TIROT,-27.8,A*2B
$SDDPT,8.2,,*5F
$GPRMC,170158.50,A,5000.611,N,00958.131,W,13.9,342.9,2023,09,12,A,S*06
$GPROT,-45.5,A*28
$GPGLL,5000.612,N,00958.131,W,170158.70,A,A*71
$IIRSA,-6.0,A,,V*52
$IIRPM,S,1,975,100,A*4A
$IIRPM,S,2,1000,100,A*73
$GPHDT,342.3,T*33
$HEROT,-76.0,A*37
$GPGGA,170159.30,5000.614,N,00958.132,W,1,11,2.5,24.3,M,52.1,M,,*40
$RAZDA,170159.40,12,09,2023,00,00*64
$RADTM,W84,,,,,,,*15
$HEHDT,341.4,T*2D
$TIROT,-115.8,A*1B
$SDDPT,8.1,,*5C
$GPRMC,170159.90,A,5000.617,N,00958.134,W,14.3,340.7,2023,09,12,A,S*09
$GPROT,-131.7,A*18
$GPGLL,5000.618,N,00958.134,W,170200.10,A,A*76
$IIRSA,-6.0,A,,V*52
$IIRPM,S,1,975,100,A*4A
$IIRPM,S,2,1000,100,A*73
$GPHDT,339.4,T*38
$HEROT,-152.8,A*08
$GPGGA,170200.70,5000.620,N,00958.136,W,1,10,2.5,24.3,M,52.1,M,,*49
$RAZDA,170200.80,12,09,2023,00,00*67
$RADTM,W84,,,,,,,*15
$HEHDT,337.7,T*2F
$TIROT,-164.5,A*10
$SDDPT,8.1,,*5C
$GPRMC,170201.30,A,5000.623,N,00958.137,W,14.7,336.8,2023,09,12,A,S*03
$GPROT,-164.8,A*17
$GPGLL,5000.623,N,00958.138,W,170201.50,A,A*77
$IIRSA,-6.0,A,,V*52
$IIRPM,S,1,975,100,A*4A
$IIRPM,S,2,1000,100,A*73
$GPHDT,335.4,T*34
$HEROT,-153.9,A*08
$GPGGA,170202.10,5000.626,N,00958.139,W,1,10,2.5,24.3,M,52.1,M,,*44
$RAZDA,170202.20,12,09,2023,00,00*6F
$RADTM,W84,,,,,,,*15
$HEHDT,333.8,T*24
$TIROT,-123.3,A*15
$SDDPT,7.6,,*54
$GPRMC,170202.70,A,5000.628,N,00958.141,W,15.0,333.1,2023,09,12,A,S*04
$GPROT,-101.6,A*1A
$GPGLL,5000.629,N,00958.142,W,170202.90,A,A*7F
$IIRSA,0.0,A,,V*79
$IIRPM,S,1,975,100,A*4A
$IIRPM,S,2,1000,100,A*73
$GPHDT,332.3,T*34
$HEROT,-70.4,A*35
$GPGGA,170203.50,5000.631,N,00958.144,W,1,10,2.5,24.4,M,52.1,M,,*4A
$RAZDA,170203.60,12,09,2023,00,00*6A
$RADTM,W84,,,,,,,*15
$HEHDT,331.7,T*29
$TIROT,-37.7,A*25
$SDDPT,7.0,,*52
$GPRMC,170204.10,A,5000.634,N,00958.146,W,15.2,331.5,2023,09,12,A,S*0A
$GPROT,-24.8,A*22
$GPGLL,5000.635,N,00958.147,W,170204.30,A,A*7B
$IIRSA,-2.0,A,,V*56
$IIRPM,S,1,975,100,A*4A
$IIRPM,S,2,1000,100,A*73
$GPHDT,331.3,T*37
$HEROT,-14.6,A*35
$GPGGA,170204.90,5000.637,N,00958.149,W,1,10,2.5,24.4,M,52.1,M,,*4A
$RAZDA,170205.00,12,09,2023,00,00*6A
$RADTM,W84,,,,,,,*15
$HEHDT,331.2,T*2C
$TIROT,-16.2,A*23
$SDDPT,6.1,,*52
$GPRMC,170205.50,A,5000.639,N,00958.151,W,15.5,331.1,2023,09,12,A,S*07
$GPROT,-23.1,A*2C
$GPGLL,5000.640,N,00958.151,W,170205.70,A,A*7B
$IIRSA,-2.0,A,,V*56
$IIRPM,S,1,975,100,A*4A
$IIRPM,S,2,1000,100,A*73
$GPHDT,330.8,T*3D
$HEROT,-43.0,A*31
$GPGGA,170206.30,5000.643,N,00958.154,W,1,9,2.5,24.4,M,52.1,M,,*75
$RAZDA,170206.40,12,09,2023,00,00*6D
$RADTM,W84,,,,,,,*15
$HEHDT,330.2,T*2D
$TIROT,-66.2,A*24
$SDDPT,4.1,,*50
$GPRMC,170206.90,A,5000.645,N,00958.156,W,15.7,329.8,2023,09,12,A,S*06
$GPROT,-84.6,A*26
$GPGLL,5000.646,N,00958.157,W,170207.10,A,A*7F
$IIRSA,-2.0,A,,V*56
$IIRPM,S,1,975,100,A*4A
$IIRPM,S,2,1000,100,A*73
$GPHDT,329.0,T*3D
$HEROT,-105.7,A*05
$GPGGA,170207.70,5000.649,N,00958.159,W,1,9,2.5,24.4,M,52.1,M,,*77
$RAZDA,170207.80,12,09,2023,00,00*60
$RADTM,W84,,,,,,,*15
$HEHDT,327.8,T*21
$TIROT,-120.4,A*11
$SDDPT,2.9,,*5E
$GPRMC,170208.30,A,5000.651,N,00958.161,W,15.9,327.1,2023,09,12,A,S*0A
$GPROT,-123.7,A*1B
$GPGLL,5000.652,N,00958.162,W,170208.50,A,A*77
$IIRSA,-2.0,A,,V*56
$IIRPM,S,1,1225,100,A*75
$IIRPM,S,2,1000,100,A*73
$GPHDT,326.0,T*32
$HEROT,-124.5,A*04
$GPGGA,170209.10,5000.654,N,00958.165,W,1,8,2.4,24.4,M,52.1,M,,*7C
$RAZDA,170209.20,12,09,2023,00,00*64
$RADTM,W84,,,,,,,*15
$HEHDT,324.7,T*2D
$TIROT,-116.2,A*12
$SDDPT,3.5,,*53
$GPRMC,170209.70,A,5000.657,N,00958.167,W,16.2,324.1,2023,09,12,A,S*04
$GPROT,-108.1,A*14
$GPGLL,5000.657,N,00958.168,W,170209.90,A,A*75
$IIRSA,-2.0,A,,V*56
$IIRPM,S,1,1475,100,A*76
$IIRPM,S,2,1000,100,A*73
$GPHDT,323.1,T*36
$HEROT,-94.0,A*3B
$GPGGA,170210.50,5000.660,N,00958.171,W,1,8,2.4,24.4,M,52.1,M,,*72
$RAZDA,170210.60,12,09,2023,00,00*68
$RADTM,W84,,,,,,,*15
$HEHDT,322.2,T*2E
$TIROT,-69.8,A*21
$SDDPT,5.6,,*56
$GPRMC,170211.10,A,5000.662,N,00958.174,W,16.5,321.9,2023,09,12,A,S*05
$GPROT,-56.2,A*2D
$GPGLL,5000.663,N,00958.175,W,170211.30,A,A*7D
$IIRSA,-2.0,A,,V*56
$IIRPM,S,1,975,100,A*4A
$IIRPM,S,2,1000,100,A*73
$GPHDT,321.4,T*31
$HEROT,-35.7,A*37
$GPGGA,170211.90,5000.665,N,00958.178,W,1,8,2.4,24.3,M,52.1,M,,*74
$RAZDA,170212.00,12,09,2023,00,00*6C
$RADTM,W84,,,,,,,*15
$HEHDT,321.1,T*2E
$TIROT,-27.7,A*24
$SDDPT,7.1,,*53
$GPRMC,170212.50,A,5000.667,N,00958.181,W,16.6,320.9,2023,09,12,A,S*0F
$GPROT,-28.9,A*2F
$GPGLL,5000.668,N,00958.182,W,170212.70,A,A*79
$IIRSA,-3.0,A,,V*57
$IIRPM,S,1,975,100,A*4A
$IIRPM,S,2,1000,100,A*73
$GPHDT,320.6,T*32
$HEROT,-40.1,A*33
$GPGGA,170213.30,5000.671,N,00958.184,W,1,8,2.4,24.3,M,52.1,M,,*7A
$RAZDA,170213.40,12,09,2023,00,00*69
$RADTM,W84,,,,,,,*15
$HEHDT,320.1,T*2F
$TIROT,-64.2,A*26
$SDDPT,7.5,,*57
$GPRMC,170213.90,A,5000.673,N,00958.187,W,16.7,319.8,2023,09,12,A,S*0B
$GPROT,-77.1,A*2D
$GPGLL,5000.674,N,00958.189,W,170214.10,A,A*7F
$IIRSA,-3.0,A,,V*57
$IIRPM,S,1,975,100,A*4A
$IIRPM,S,2,1000,100,A*73
$GPHDT,319.0,T*3E
$HEROT,-106.4,A*05
$GPGGA,170214.70,5000.676,N,00958.192,W,1,8,2.4,24.3,M,52.1,M,,*79
$RAZDA,170214.80,12,09,2023,00,00*62
$RADTM,W84,,,,,,,*15
$HEHDT,317.6,T*2C
$TIROT,-137.0,A*13
$SDDPT,7.5,,*57
$GPRMC,170215.30,A,5000.678,N,00958.195,W,16.7,316.9,2023,09,12,A,S*01
$GPROT,-145.5,A*19
$GPGLL,5000.679,N,00958.196,W,170215.50,A,A*79
$IIRSA,-3.0,A,,V*57
$IIRPM,S,1,975,100,A*4A
$IIRPM,S,2,1000,100,A*73
$GPHDT,315.6,T*34
$HEROT,-151.9,A*0A
$GPGGA,170216.10,5000.681,N,00958.199,W,1,9,2.5,24.3,M,52.1,M,,*7E
$RAZDA,170216.20,12,09,2023,00,00*6A
$RADTM,W84,,,,,,,*15
$HEHDT,313.9,T*27
$TIROT,-146.1,A*14
$SDDPT,7.8,,*5A
$GPRMC,170216.70,A,5000.683,N,00958.203,W,16.8,313.2,2023,09,12,A,S*0F
$GPROT,-138.2,A*14
$GPGLL,5000.684,N,00958.204,W,170216.90,A,A*7C
$IIRSA,-3.0,A,,V*57
$IIRPM,S,1,975,100,A*4A
$IIRPM,S,2,1000,100,A*73
$GPHDT,311.9,T*3F
$HEROT,-119.6,A*09
$GPGGA,170217.50,5000.686,N,00958.207,W,1,9,2.5,24.3,M,52.1,M,,*78
$RAZDA,170217.60,12,09,2023,00,00*6F
$RADTM,W84,,,,,,,*15
$HEHDT,310.8,T*25
$TIROT,-94.7,A*2C
$SDDPT,7.8,,*5A
$GPRMC,170218.10,A,5000.688,N,00958.211,W,16.9,310.2,2023,09,12,A,S*0D
$GPROT,-81.4,A*21
$GPGLL,5000.689,N,00958.212,W,170218.30,A,A*72
$IIRSA,-3.0,A,,V*57
$IIRPM,S,1,975,100,A*4A
$IIRPM,S,2,1000,100,A*73
$GPHDT,309.6,T*39
$HEROT,-58.5,A*3E
$GPGGA,170218.90,5000.691,N,00958.216,W,1,9,2.5,24.3,M,52.1,M,,*7D
$RAZDA,170219.00,12,09,2023,00,00*67
$RADTM,W84,,,,,,,*15
$HEHDT,309.0,T*25
$TIROT,-41.1,A*22
$SDDPT,7.5,,*57
$GPRMC,170219.50,A,5000.693,N,00958.220,W,16.9,308.8,2023,09,12,A,S*03
$GPROT,-38.5,A*22
$GPGLL,5000.693,N,00958.221,W,170219.70,A,A*7C
$IIRSA,-3.0,A,,V*57
$IIRPM,S,1,975,100,A*4A
$IIRPM,S,2,1000,100,A*73
$GPHDT,308.4,T*3A
$HEROT,-41.1,A*32
$GPGGA,170220.30,5000.695,N,00958.225,W,1,9,2.5,24.2,M,52.1,M,,*79
$RAZDA,170220.40,12,09,2023,00,00*69
$RADTM,W84,,,,,,,*15
$HEHDT,307.9,T*22
$TIROT,-56.2,A*27
$SDDPT,7.5,,*57
$GPRMC,170220.90,A,5000.697,N,00958.229,W,17.0,307.6,2023,09,12,A,S*01
$GPROT,-72.3,A*2A
$GPGLL,5000.698,N,00958.230,W,170221.10,A,A*7A
$IIRSA,-4.0,A,,V*50
$IIRPM,S,1,975,100,A*4A
$IIRPM,S,2,1000,100,A*73
$GPHDT,306.8,T*38
$HEROT,-95.8,A*32
$GPGGA,170221.70,5000.700,N,00958.234,W,1,8,2.4,24.2,M,52.1,M,,*71
$RAZDA,170221.80,12,09,2023,00,00*64
$RADTM,W84,,,,,,,*15
$HEHDT,305.7,T*2E
$TIROT,-126.0,A*13
$SDDPT,7.5,,*57
$GPRMC,170222.30,V,5000.699921,N,958.234,W,,,2023,09,12,A,N*0F
$GPROT,-137.6,A*1F
$GPGLL,5000.699921,N,958.234,W,170222.50,V,N*5A
$IIRSA,-4.0,A,,V*50
$IIRPM,S,1,975,100,A*4A
$IIRPM,S,2,1000,100,A*73
$GPHDT,303.6,T*33
$HEROT,-154.6,A*00
$GPGGA,170223.10,5000.699921,N,958.234,W,0,00,,,M,0.0,M,,*73
$RAZDA,170223.20,12,09,2023,00,00*6C
$RADTM,W84,,,,,,,*15
$HEHDT,302.0,T*2E
$TIROT,-158.3,A*19
$SDDPT,6.9,,*5A
$GPRMC,170223.70,V,5000.699921,N,958.234,W,,,2023,09,12,A,N*0A
$GPROT,-155.5,A*18
$GPGLL,5000.699921,N,958.234,W,170223.90,V,N*57
$IIRSA,-4.0,A,,V*50
$IIRPM,S,1,975,100,A*4A
$IIRPM,S,2,1000,100,A*73
$GPHDT,299.7,T*30
$HEROT,-140.7,A*04
$GPGGA,170224.50,5000.699921,N,958.234,W,0,00,,,M,0.0,M,,*70
$RAZDA,170224.60,12,09,2023,00,00*6F
$RADTM,W84,,,,,,,*15
$HEHDT,298.3,T*2F
$TIROT,-106.5,A*14
$SDDPT,4.9,,*58
$GPRMC,170225.10,V,5000.699921,N,958.234,W,,,2023,09,12,A,N*0A
$GPROT,-87.5,A*26
$GPGLL,5000.699921,N,958.234,W,170225.30,V,N*5B
$IIRSA,0.0,A,,V*79
$IIRPM,S,1,975,100,A*4A
$IIRPM,S,2,1000,100,A*73
$GPHDT,297.0,T*39
$HEROT,-53.1,A*31
$GPGGA,170225.90,5000.699921,N,958.234,W,0,00,,,M,0.0,M,,*7D
$RAZDA,170226.00,12,09,2023,00,00*6B
$RADTM,W84,,,,,,,*15
$HEHDT,296.6,T*24
$TIROT,-22.6,A*20
$SDDPT,3.5,,*53
$GPRMC,170226.50,V,5000.699921,N,958.234,W,,,2023,09,12,A,N*0D
$GPROT,-15.4,A*2C
$GPGLL,5000.699921,N,958.234,W,170226.70,V,N*5C
$IIRSA,-2.0,A,,V*56
$IIRPM,S,1,975,100,A*4A
$IIRPM,S,2,1000,100,A*73
$GPHDT,296.3,T*3B
$HEROT,-8.2,A*0C
$GPGGA,170227.30,5000.699921,N,958.234,W,0,00,,,M,0.0,M,,*75
$RAZDA,170227.40,12,09,2023,00,00*6E
$RADTM,W84,,,,,,,*15
$HEHDT,296.2,T*20
$TIROT,-14.9,A*2A
$SDDPT,4.9,,*58
$GPRMC,170227.90,A,5000.715,N,00958.278,W,17.1,296.1,2023,09,12,A,S*06
$GPROT,-25.2,A*29
$GPGLL,5000.716,N,00958.279,W,170228.10,A,A*79
$IIRSA,-2.0,A,,V*56
$IIRPM,S,1,975,100,A*4A
$IIRPM,S,2,1000,100,A*73
$GPHDT,295.8,T*33
$HEROT,-45.6,A*31
$GPGGA,170228.70,5000.718,N,00958.284,W,1,8,2.4,24.2,M,52.1,M,,*7A
$RAZDA,170228.80,12,09,2023,00,00*6D
$RADTM,W84,,,,,,,*15
$HEHDT,295.2,T*23
$TIROT,-85.0,A*2B
$SDDPT,7.0,,*52
$GPRMC,170229.30,A,5000.719,N,00958.288,W,17.1,294.7,2023,09,12,A,S*05
$GPROT,-103.0,A*1E
$GPGLL,5000.719,N,00958.289,W,170229.50,A,A*7C
$IIRSA,-6.0,A,,V*52
$IIRPM,S,1,975,100,A*4A
$IIRPM,S,2,1000,100,A*73
$GPHDT,293.7,T*3A
$HEROT,-128.4,A*09
$GPGGA,170230.10,5000.721,N,00958.294,W,1,8,2.4,24.1,M,52.1,M,,*7D
$RAZDA,170230.20,12,09,2023,00,00*6E
$RADTM,W84,,,,,,,*15
$HEHDT,292.2,T*24
$TIROT,-152.3,A*13
$SDDPT,8.0,,*5D
$GPRMC,170230.70,A,5000.722,N,00958.298,W,17.2,291.3,2023,09,12,A,S*02
$GPROT,-157.4,A*1B
$GPGLL,5000.722,N,00958.300,W,170230.90,A,A*70
$IIRSA,-6.0,A,,V*52
$IIRPM,S,1,975,100,A*4A
$IIRPM,S,2,1000,100,A*73
$GPHDT,289.9,T*3F
$HEROT,-157.5,A*00
$GPGGA,170231.50,5000.723,N,00958.304,W,1,8,2.3,24.1,M,52.1,M,,*75
$RAZDA,170231.60,12,09,2023,00,00*6B
$RADTM,W84,,,,,,,*15
$HEHDT,288.2,T*2F
$TIROT,-145.2,A*14
$SDDPT,8.1,,*5C
$GPRMC,170232.10,A,5000.724,N,00958.309,W,17.2,287.4,2023,09,12,A,S*09
$GPROT,-136.3,A*1B
$GPGLL,5000.724,N,00958.311,W,170232.30,A,A*7E
$IIRSA,-6.0,A,,V*52
$IIRPM,S,1,975,100,A*4A
$IIRPM,S,2,1000,100,A*73
$GPHDT,286.2,T*3B
$HEROT,-120.3,A*06
$GPGGA,170232.90,5000.725,N,00958.315,W,1,7,2.3,24.1,M,52.1,M,,*73
$RAZDA,170233.00,12,09,2023,00,00*6F
$RADTM,W84,,,,,,,*15
$HEHDT,285.0,T*20
$TIROT,-97.7,A*2F
$SDDPT,8.1,,*5C
$GPRMC,170233.50,A,5000.726,N,00958.320,W,17.2,284.5,2023,09,12,A,S*07
$GPROT,-86.8,A*2A
$GPGLL,5000.726,N,00958.322,W,170233.70,A,A*79
$IIRSA,-6.0,A,,V*52
$IIRPM,S,1,975,100,A*4A
$IIRPM,S,2,1000,100,A*73
$GPHDT,283.7,T*3B
$HEROT,-80.2,A*3C
$GPGGA,170234.30,5000.727,N,00958.326,W,1,7,2.3,24.1,M,52.1,M,,*7D
$RAZDA,170234.40,12,09,2023,00,00*6C
$RADTM,W84,,,,,,,*15
$HEHDT,282.9,T*2E
$TIROT,-81.9,A*26
$SDDPT,8.7,,*5A
$GPRMC,170234.90,A,5000.728,N,00958.331,W,17.2,282.4,2023,09,12,A,S*05
$GPROT,-87.5,A*26
$GPGLL,5000.728,N,00958.332,W,170235.10,A,A*76
$IIRSA,-6.0,A,,V*52
$IIRPM,S,1,975,100,A*4A
$IIRPM,S,2,1000,100,A*73
$GPHDT,281.6,T*38
$HEROT,-105.7,A*05
$GPGGA,170235.70,5000.729,N,00958.337,W,1,7,2.2,24.1,M,52.1,M,,*77
$RAZDA,170235.80,12,09,2023,00,00*61
$RADTM,W84,,,,,,,*15
$HEHDT,280.3,T*26
$TIROT,-136.4,A*16
$SDDPT,8.7,,*5A
$GPRMC,170236.30,A,5000.729,N,00958.342,W,17.2,279.6,2023,09,12,A,S*0E
$GPROT,-148.2,A*13
$GPGLL,5000.729,N,00958.344,W,170236.50,A,A*71
$IIRSA,0.0,A,,V*79
$IIRPM,S,1,975,100,A*4A
$IIRPM,S,2,1000,100,A*73
$GPHDT,278.2,T*3A
$HEROT,-159.5,A*0E
$GPGGA,170237.10,5000.730,N,00958.348,W,1,7,2.2,24.1,M,52.1,M,,*73
$RAZDA,170237.20,12,09,2023,00,00*69
$RADTM,W84,,,,,,,*15
$HEHDT,276.4,T*28
$TIROT,-163.8,A*1A
$SDDPT,8.7,,*5A
$GPRMC,170237.70,A,5000.730,N,00958.353,W,17.2,275.6,2023,09,12,A,S*0F
$GPROT,-166.3,A*1E
$GPGLL,5000.730,N,00958.355,W,170237.90,A,A*74
$IIRSA,0.0,A,,V*79
$IIRPM,S,1,975,100,A*4A
$IIRPM,S,2,1000,100,A*73
$GPHDT,274.1,T*35
$HEROT,-158.4,A*0E
$GPGGA,170238.50,5000.729904,N,958.348,W,0,00,,,M,0.0,M,,*7A
$RAZDA,170238.60,12,09,2023,00,00*62
$RADTM,W84,,,,,,,*15
$HEHDT,272.5,T*2D
$TIROT,-138.4,A*18
$SDDPT,8.7,,*5A
$GPRMC,170239.10,V,5000.729904,N,958.348,W,,,2023,09,12,A,N*00
$GPROT,-124.4,A*1F
$GPGLL,5000.729904,N,958.348,W,170239.30,V,N*51
$IIRSA,1.0,A,,V*78
$IIRPM,S,1,975,100,A*4A
$IIRPM,S,2,1000,100,A*73
$GPHDT,270.7,T*37
$HEROT,-92.2,A*3F
$GPGGA,170239.90,5000.729904,N,958.348,W,0,00,,,M,0.0,M,,*77
$RAZDA,170240.00,12,09,2023,00,00*6B
$RADTM,W84,,,,,,,*15
$HEHDT,269.9,T*2B
$TIROT,-43.6,A*27
$SDDPT,8.3,,*5E
$GPRMC,170240.50,V,5000.729904,N,958.348,W,,,2023,09,12,A,N*0A
$GPROT,-21.0,A*2F
$GPGLL,5000.729904,N,958.348,W,170240.70,V,N*5B
$IIRSA,5.0,A,,V*7C
$IIRPM,S,1,975,100,A*4A
$IIRPM,S,2,1000,100,A*73
$GPHDT,269.6,T*3E
$HEROT,16.0,A*1C
$GPGGA,170241.30,5000.729904,N,958.348,W,0,00,,,M,0.0,M,,*72
$RAZDA,170241.40,12,09,2023,00,00*6E
$RADTM,W84,,,,,,,*15
$HEHDT,269.9,T*2B
$TIROT,45.0,A*0A
$RAZDA,170146.80,12,09,2023,00,00*66
$RADTM,W84,,,,,,,*15
$HEHDT,346.3,T*2D
$TIROT,-61.5,A*24
$SDDPT,7.1,,*53
$GPRMC,170147.30,A,5000.572,N,00958.115,W,8.7,346.0,2023,09,12,A,S*37
$GPROT,-51.2,A*2A
$GPGLL,5000.573,N,00958.115,W,170147.50,A,A*7F
$IIRSA,0.0,A,,V*79
$IIRPM,S,1,975,100,A*4A
$IIRPM,S,2,1000,100,A*73
$GPHDT,345.6,T*31
$HEROT,-28.6,A*3A
$GPGGA,170148.10,5000.575,N,00958.116,W,1,12,6,24.6,M,52.1,M,,*59
$RAZDA,170148.20,12,09,2023,00,00*62
$RADTM,W84,,,,,,,*15
$HEHDT,345.4,T*29
$TIROT,3.0,A*38
$SDDPT,7.6,,*54
$GPRMC,170148.70,A,5000.576,N,00958.116,W,9.6,345.4,2023,09,12,A,S*3C
$GPROT,18.4,A*0C
$GPGLL,5000.577,N,00958.117,W,170148.90,A,A*7A
$IIRSA,0.0,A,,V*79
$IIRPM,S,1,975,100,A*4A
$IIRPM,S,2,1000,100,A*73
$GPHDT,345.6,T*31
$HEROT,34.1,A*1D
$GPGGA,170149.50,5000.579,N,00958.117,W,1,12,6,24.6,M,52.1,M,,*51
$RAZDA,170149.60,12,09,2023,00,00*67
$RADTM,W84,,,,,,,*15
$HEHDT,346.1,T*2F
$TIROT,48.8,A*0F
$SDDPT,8.1,,*5C
$GPRMC,170150.10,A,5000.580,N,00958.118,W,10.4,346.4,2023,09,12,A,S*0D
$GPROT,51.4,A*01
$GPGLL,5000.581,N,00958.118,W,170150.30,A,A*7F
$IIRSA,0.0,A,,V*79
$IIRPM,S,1,975,100,A*4A
$IIRPM,S,2,1000,100,A*73
$GPHDT,346.8,T*3C
$HEROT,46.9,A*10
$GPGGA,170150.90,5000.583,N,00958.119,W,1,12,2.5,24.6,M,52.1,M,,*41
$RAZDA,170151.00,12,09,2023,00,00*68
$RADTM,W84,,,,,,,*15
$HEHDT,347.3,T*2C
$TIROT,30.9,A*01
$SDDPT,8.1,,*5C
$GPRMC,170151.50,A,5000.585,N,00958.120,W,11.1,347.4,2023,09,12,A,S*03
$GPROT,19.6,A*0F
$GPGLL,5000.585,N,00958.120,W,170151.70,A,A*75
$IIRSA,-3.0,A,,V*57
$IIRPM,S,1,975,100,A*4A
$IIRPM,S,2,1000,100,A*73
$GPHDT,347.5,T*30
$HEROT,-7.2,A*03
$GPGGA,170152.30,5000.588,N,00958.121,W,1,12,2.5,24.5,M,52.1,M,,*4A
$RAZDA,170152.40,12,09,2023,00,00*6F
$RADTM,W84,,,,,,,*15
$HEHDT,347.3,T*2C
$TIROT,-44.6,A*20
$SDDPT,8.1,,*5C
$GPRMC,170152.90,A,5000.590,N,00958.121,W,11.8,347.0,2023,09,12,A,S*04
$GPROT,-60.4,A*2E
$GPGLL,5000.591,N,00958.122,W,170153.10,A,A*76
$IIRSA,-3.0,A,,V*57
$IIRPM,S,1,975,100,A*4A
$IIRPM,S,2,1000,100,A*73
$GPHDT,346.4,T*30
$HEROT,-77.8,A*3E
$GPGGA,170153.70,5000.593,N,00958.122,W,1,10,2.5,24.5,M,52.1,M,,*44
$RAZDA,170153.80,12,09,2023,00,00*62
$RADTM,W84,,,,,,,*15
$HEHDT,345.5,T*28
$TIROT,-83.4,A*29
$SDDPT,8.1,,*5C
$GPRMC,170154.30,A,5000.595,N,00958.123,W,12.4,345.1,2023,09,12,A,S*03
$GPROT,-80.5,A*21
$GPGLL,5000.596,N,00958.124,W,170154.50,A,A*74
$IIRSA,-3.0,A,,V*57
$IIRPM,S,1,975,100,A*4A
$IIRPM,S,2,1000,100,A*73
$GPHDT,344.4,T*32
$HEROT,-68.5,A*3D
$GPGGA,170155.10,5000.598,N,00958.125,W,1,10,2.5,24.5,M,52.1,M,,*48
$RAZDA,170155.20,12,09,2023,00,00*6E
$RADTM,W84,,,,,,,*15
$HEHDT,343.7,T*2C
$TIROT,-46.5,A*21
$SDDPT,8.1,,*5C
$GPRMC,170155.70,A,5000.600,N,00958.126,W,13.0,343.5,2023,09,12,A,S*0B
$GPROT,-37.8,A*20
$GPGLL,5000.601,N,00958.126,W,170155.90,A,A*76
$IIRSA,-3.0,A,,V*57
$IIRPM,S,1,975,100,A*4A
$IIRPM,S,2,1000,100,A*73
$GPHDT,343.2,T*33
$HEROT,-14.7,A*34
$GPGGA,170156.50,5000.603,N,00958.127,W,1,10,2.5,24.5,M,52.1,M,,*4C
$RAZDA,170156.60,12,09,2023,00,00*69
$RADTM,W84,,,,,,,*15
$HEHDT,343.1,T*2A
$TIROT,1.3,A*39
$SDDPT,8.1,,*5C
$GPRMC,170157.10,A,5000.605,N,00958.128,W,13.5,343.1,2023,09,12,A,S*05
$GPROT,4.0,A*35
$GPGLL,5000.606,N,00958.129,W,170157.30,A,A*76
$IIRSA,-6.0,A,,V*52
$IIRPM,S,1,975,100,A*4A
$IIRPM,S,2,1000,100,A*73
$GPHDT,343.1,T*30
$HEROT,-4.2,A*00
$GPGGA,170157.90,5000.609,N,00958.130,W,1,10,2.5,24.5,M,52.1,M,,*4D
$RAZDA,170158.00,12,09,2023,00,00*61
$RADTM,W84,,,,,,,*15
$HEHDT,343.0,T*2B
$TIROT,-27.8,A*2B
$SDDPT,8.2,,*5F
$GPRMC,170158.50,A,5000.611,N,00958.131,W,13.9,342.9,2023,09,12,A,S*06
$GPROT,-45.5,A*28
$GPGLL,5000.612,N,00958.131,W,170158.70,A,A*71
$IIRSA,-6.0,A,,V*52
$IIRPM,S,1,975,100,A*4A
$IIRPM,S,2,1000,100,A*73
$GPHDT,342.3,T*33
$HEROT,-76.0,A*37
$GPGGA,170159.30,5000.614,N,00958.132,W,1,10,2.5,24.4,M,52.1,M,,*46
$RAZDA,170159.40,12,09,2023,00,00*64
$RADTM,W84,,,,,,,*15
$HEHDT,341.4,T*2D
$TIROT,-115.8,A*1B
$SDDPT,8.1,,*5C
$GPRMC,170159.90,A,5000.617,N,00958.134,W,14.3,340.7,2023,09,12,A,S*09
$GPROT,-131.7,A*18
$GPGLL,5000.618,N,00958.134,W,170200.10,A,A*76
$IIRSA,-6.0,A,,V*52
$IIRPM,S,1,975,100,A*4A
$IIRPM,S,2,1000,100,A*73
$GPHDT,339.4,T*38
$HEROT,-152.8,A*08
$GPGGA,170200.70,5000.620,N,00958.136,W,1,10,2.5,24.4,M,52.1,M,,*4E
$RAZDA,170200.80,12,09,2023,00,00*67
$RADTM,W84,,,,,,,*15
$HEHDT,337.7,T*2F
$TIROT,-164.5,A*10
$SDDPT,8.1,,*5C
$GPRMC,170201.30,A,5000.623,N,00958.137,W,14.7,336.8,2023,09,12,A,S*03
$GPROT,-164.8,A*17
$GPGLL,5000.623,N,00958.138,W,170201.50,A,A*77
$IIRSA,-6.0,A,,V*52
$IIRPM,S,1,975,100,A*4A
$IIRPM,S,2,1000,100,A*73
$GPHDT,335.4,T*34
$HEROT,-153.9,A*08
$GPGGA,170202.10,5000.626,N,00958.139,W,1,10,2.5,24.4,M,52.1,M,,*43
$RAZDA,170202.20,12,09,2023,00,00*6F
$RADTM,W84,,,,,,,*15
$HEHDT,333.8,T*24
$TIROT,-123.3,A*15
$SDDPT,7.6,,*54
$GPRMC,170202.70,A,5000.628,N,00958.141,W,15.0,333.1,2023,09,12,A,S*04
$GPROT,-101.6,A*1A
$GPGLL,5000.629,N,00958.142,W,170202.90,A,A*7F
$IIRSA,0.0,A,,V*79
$IIRPM,S,1,975,100,A*4A
$IIRPM,S,2,1000,100,A*73
$GPHDT,332.3,T*34
$HEROT,-70.4,A*35
$GPGGA,170203.50,5000.631,N,00958.144,W,1,10,2.5,24.4,M,52.1,M,,*4A
$RAZDA,170203.60,12,09,2023,00,00*6A
$RADTM,W84,,,,,,,*15
$HEHDT,331.7,T*29
$TIROT,-37.7,A*25
$SDDPT,7.0,,*52
$GPRMC,170204.10,A,5000.634,N,00958.146,W,15.2,331.5,2023,09,12,A,S*0A
$GPROT,-24.8,A*22
$GPGLL,5000.635,N,00958.147,W,170204.30,A,A*7B
$IIRSA,-2.0,A,,V*56
$IIRPM,S,1,975,100,A*4A
$IIRPM,S,2,1000,100,A*73
$GPHDT,331.3,T*37
$HEROT,-14.6,A*35
$GPGGA,170204.90,5000.637,N,00958.149,W,1,10,2.5,24.4,M,52.1,M,,*4A
$RAZDA,170205.00,12,09,2023,00,00*6A
$RADTM,W84,,,,,,,*15
$HEHDT,331.2,T*2C
$TIROT,-16.2,A*23
$SDDPT,6.1,,*52
$GPRMC,170205.50,A,5000.639,N,00958.151,W,15.5,331.1,2023,09,12,A,S*07
$GPROT,-23.1,A*2C
$GPGLL,5000.640,N,00958.151,W,170205.70,A,A*7B
$IIRSA,-2.0,A,,V*56
$IIRPM,S,1,975,100,A*4A
$IIRPM,S,2,1000,100,A*73
$GPHDT,330.8,T*3D
$HEROT,-43.0,A*31
$GPGGA,170206.30,5000.643,N,00958.154,W,1,10,2.5,24.4,M,52.1,M,,*4D
$RAZDA,170206.40,12,09,2023,00,00*6D
$RADTM,W84,,,,,,,*15
$HEHDT,330.2,T*2D
$TIROT,-66.2,A*24
$SDDPT,4.1,,*50
$GPRMC,170206.90,A,5000.645,N,00958.156,W,15.7,329.8,2023,09,12,A,S*06
$GPROT,-84.6,A*26
$GPGLL,5000.646,N,00958.157,W,170207.10,A,A*7F
$IIRSA,-2.0,A,,V*56
$IIRPM,S,1,975,100,A*4A
$IIRPM,S,2,1000,100,A*73
$GPHDT,329.0,T*3D
$HEROT,-105.7,A*05
$GPGGA,170207.70,5000.649,N,00958.159,W,1,10,2.5,24.3,M,52.1,M,,*48
$RAZDA,170207.80,12,09,2023,00,00*60
$RADTM,W84,,,,,,,*15
$HEHDT,327.8,T*21
$TIROT,-120.4,A*11
$SDDPT,2.9,,*5E
$GPRMC,170208.30,A,5000.651,N,00958.161,W,15.9,327.1,2023,09,12,A,S*0A
$GPROT,-123.7,A*1B
$GPGLL,5000.652,N,00958.162,W,170208.50,A,A*77
$IIRSA,-2.0,A,,V*56
$IIRPM,S,1,1225,100,A*75
$IIRPM,S,2,1000,100,A*73
$GPHDT,326.0,T*32
$HEROT,-124.5,A*04
$GPGGA,170209.10,5000.654,N,00958.165,W,1,10,2.5,24.3,M,52.1,M,,*43
$RAZDA,170209.20,12,09,2023,00,00*64
$RADTM,W84,,,,,,,*15
$HEHDT,324.7,T*2D
$TIROT,-116.2,A*12
$SDDPT,3.5,,*53
$GPRMC,170209.70,A,5000.657,N,00958.167,W,16.2,324.1,2023,09,12,A,S*04
$GPROT,-108.1,A*14
$GPGLL,5000.657,N,00958.168,W,170209.90,A,A*75
$IIRSA,-2.0,A,,V*56
$IIRPM,S,1,1475,100,A*76
$IIRPM,S,2,1000,100,A*73
$GPHDT,323.1,T*36
$HEROT,-94.0,A*3B
$GPGGA,170210.50,5000.660,N,00958.171,W,1,10,2.5,24.3,M,52.1,M,,*4D
$RAZDA,170210.60,12,09,2023,00,00*68
$RADTM,W84,,,,,,,*15
$HEHDT,322.2,T*2E
$TIROT,-69.8,A*21
$SDDPT,5.6,,*56
$GPRMC,170211.10,A,5000.662,N,00958.174,W,16.5,321.9,2023,09,12,A,S*05
$GPROT,-56.2,A*2D
$GPGLL,5000.663,N,00958.175,W,170211.30,A,A*7D
$IIRSA,-2.0,A,,V*56
$IIRPM,S,1,975,100,A*4A
$IIRPM,S,2,1000,100,A*73
$GPHDT,321.4,T*31
$HEROT,-35.7,A*37
$GPGGA,170211.90,5000.665,N,00958.178,W,1,10,2.5,24.3,M,52.1,M,,*4C
$RAZDA,170212.00,12,09,2023,00,00*6C
$RADTM,W84,,,,,,,*15
$HEHDT,321.1,T*2E
$TIROT,-27.7,A*24
$SDDPT,7.1,,*53
$GPRMC,170212.50,A,5000.667,N,00958.181,W,16.6,320.9,2023,09,12,A,S*0F
$GPROT,-28.9,A*2F
$GPGLL,5000.668,N,00958.182,W,170212.70,A,A*79
$IIRSA,-3.0,A,,V*57
$IIRPM,S,1,975,100,A*4A
$IIRPM,S,2,1000,100,A*73
$GPHDT,320.6,T*32
$HEROT,-40.1,A*33
$GPGGA,170213.30,5000.671,N,00958.184,W,1,10,2.4,24.3,M,52.1,M,,*43
$RAZDA,170213.40,12,09,2023,00,00*69
$RADTM,W84,,,,,,,*15
$HEHDT,320.1,T*2F
$TIROT,-64.2,A*26
$SDDPT,7.5,,*57
$GPRMC,170213.90,A,5000.673,N,00958.187,W,16.7,319.8,2023,09,12,A,S*0B
$GPROT,-77.1,A*2D
$GPGLL,5000.674,N,00958.189,W,170214.10,A,A*7F
$IIRSA,-3.0,A,,V*57
$IIRPM,S,1,975,100,A*4A
$IIRPM,S,2,1000,100,A*73
$GPHDT,319.0,T*3E
$HEROT,-106.4,A*05
$GPGGA,170214.70,5000.676,N,00958.192,W,1,9,2.4,24.4,M,52.1,M,,*7F
$RAZDA,170214.80,12,09,2023,00,00*62
$RADTM,W84,,,,,,,*15
$HEHDT,317.6,T*2C
$TIROT,-137.0,A*13
$SDDPT,7.5,,*57
$GPRMC,170215.30,A,5000.678,N,00958.195,W,16.7,316.9,2023,09,12,A,S*01
$GPROT,-145.5,A*19
$GPGLL,5000.679,N,00958.196,W,170215.50,A,A*79
$IIRSA,-3.0,A,,V*57
$IIRPM,S,1,975,100,A*4A
$IIRPM,S,2,1000,100,A*73
$GPHDT,315.6,T*34
$HEROT,-151.9,A*0A
$GPGGA,170216.10,5000.681,N,00958.199,W,1,9,2.4,24.4,M,52.1,M,,*78
$RAZDA,170216.20,12,09,2023,00,00*6A
$RADTM,W84,,,,,,,*15
$HEHDT,313.9,T*27
$TIROT,-146.1,A*14
$SDDPT,7.8,,*5A
$GPRMC,170216.70,A,5000.683,N,00958.203,W,16.8,313.2,2023,09,12,A,S*0F
$GPROT,-138.2,A*14
$GPGLL,5000.684,N,00958.204,W,170216.90,A,A*7C
$IIRSA,-3.0,A,,V*57
$IIRPM,S,1,975,100,A*4A
$IIRPM,S,2,1000,100,A*73
$GPHDT,311.9,T*3F
$HEROT,-119.6,A*09
$GPGGA,170217.50,5000.686,N,00958.207,W,1,8,2.4,24.4,M,52.1,M,,*7F
$RAZDA,170217.60,12,09,2023,00,00*6F
$RADTM,W84,,,,,,,*15
$HEHDT,310.8,T*25
$TIROT,-94.7,A*2C
$SDDPT,7.8,,*5A
$GPRMC,170218.10,A,5000.688,N,00958.211,W,16.9,310.2,2023,09,12,A,S*0D
$GPROT,-81.4,A*21
$GPGLL,5000.689,N,00958.212,W,170218.30,A,A*72
$IIRSA,-3.0,A,,V*57
$IIRPM,S,1,975,100,A*4A
$IIRPM,S,2,1000,100,A*73
$GPHDT,309.6,T*39
$HEROT,-58.5,A*3E
$GPGGA,170218.90,5000.691,N,00958.216,W,1,8,2.4,24.4,M,52.1,M,,*7A
$RAZDA,170219.00,12,09,2023,00,00*67
$RADTM,W84,,,,,,,*15
$HEHDT,309.0,T*25
$TIROT,-41.1,A*22
$SDDPT,7.5,,*57
$GPRMC,170219.50,A,5000.693,N,00958.220,W,16.9,308.8,2023,09,12,A,S*03
$GPROT,-38.5,A*22
$GPGLL,5000.693,N,00958.221,W,170219.70,A,A*7C
$IIRSA,-3.0,A,,V*57
$IIRPM,S,1,975,100,A*4A
$IIRPM,S,2,1000,100,A*73
$GPHDT,308.4,T*3A
$HEROT,-41.1,A*32
$GPGGA,170220.30,5000.695,N,00958.225,W,1,8,2.4,24.5,M,52.1,M,,*7E
$RAZDA,170220.40,12,09,2023,00,00*69
$RADTM,W84,,,,,,,*15
$HEHDT,307.9,T*22
$TIROT,-56.2,A*27
$SDDPT,7.5,,*57
$GPRMC,170220.90,A,5000.697,N,00958.229,W,17.0,307.6,2023,09,12,A,S*01
$GPROT,-72.3,A*2A
$GPGLL,5000.698,N,00958.230,W,170221.10,A,A*7A
$IIRSA,-4.0,A,,V*50
$IIRPM,S,1,975,100,A*4A
$IIRPM,S,2,1000,100,A*73
$GPHDT,306.8,T*38
$HEROT,-95.8,A*32
$GPGGA,170221.70,5000.700,N,00958.234,W,1,8,2.3,24.5,M,52.1,M,,*71
$RAZDA,170221.80,12,09,2023,00,00*64
$RADTM,W84,,,,,,,*15
$HEHDT,305.7,T*2E
$TIROT,-126.0,A*13
$SDDPT,7.5,,*57
$GPRMC,170222.30,A,5000.702,N,00958.238,W,17.0,305.0,2023,09,12,A,S*00
$GPROT,-137.6,A*1F
$GPGLL,5000.702,N,00958.239,W,170222.50,A,A*76
$IIRSA,-4.0,A,,V*50
$IIRPM,S,1,975,100,A*4A
$IIRPM,S,2,1000,100,A*73
$GPHDT,303.6,T*33
$HEROT,-154.6,A*00
$GPGGA,170223.10,5000.704,N,00958.243,W,1,9,2.3,24.5,M,52.1,M,,*70
$RAZDA,170223.20,12,09,2023,00,00*6C
$RADTM,W84,,,,,,,*15
$HEHDT,302.0,T*2E
$TIROT,-158.3,A*19
$SDDPT,6.9,,*5A
$GPRMC,170223.70,A,5000.705,N,00958.247,W,17.0,301.1,2023,09,12,A,S*0F
$GPROT,-155.5,A*18
$GPGLL,5000.706,N,00958.249,W,170223.90,A,A*78
$IIRSA,-4.0,A,,V*50
$IIRPM,S,1,975,100,A*4A
$IIRPM,S,2,1000,100,A*73
$GPHDT,299.7,T*30
$HEROT,-140.7,A*04
$GPGGA,170224.50,5000.707,N,00958.253,W,1,9,2.3,24.5,M,52.1,M,,*71
$RAZDA,170224.60,12,09,2023,00,00*6F
$RADTM,W84,,,,,,,*15
$HEHDT,298.3,T*2F
$TIROT,-106.5,A*14
$SDDPT,4.9,,*58
$GPRMC,170225.10,A,5000.709,N,00958.257,W,17.1,297.7,2023,09,12,A,S*0B
$GPROT,-87.5,A*26
$GPGLL,5000.710,N,00958.259,W,170225.30,A,A*72
$IIRSA,0.0,A,,V*79
$IIRPM,S,1,975,100,A*4A
$IIRPM,S,2,1000,100,A*73
$GPHDT,297.0,T*39
$HEROT,-53.1,A*31
$GPGGA,170225.90,5000.711,N,00958.263,W,1,10,2.3,24.5,M,52.1,M,,*40
$RAZDA,170226.00,12,09,2023,00,00*6B
$RADTM,W84,,,,,,,*15
$HEHDT,296.6,T*24
$TIROT,-22.6,A*20
$SDDPT,3.5,,*53
$GPRMC,170226.50,A,5000.712,N,00958.267,W,17.1,296.4,2023,09,12,A,S*07
$GPROT,-15.4,A*2C
$GPGLL,5000.713,N,00958.269,W,170226.70,A,A*75
$IIRSA,-2.0,A,,V*56
$IIRPM,S,1,975,100,A*4A
$IIRPM,S,2,1000,100,A*73
$GPHDT,296.3,T*3B
$HEROT,-8.2,A*0C
$GPGGA,170227.30,5000.714,N,00958.273,W,1,10,2.3,24.5,M,52.1,M,,*4C
$RAZDA,170227.40,12,09,2023,00,00*6E
$RADTM,W84,,,,,,,*15
$HEHDT,296.2,T*20
$TIROT,-14.9,A*2A
$SDDPT,4.9,,*58
$GPRMC,170227.90,A,5000.715,N,00958.278,W,17.1,296.1,2023,09,12,A,S*06
$GPROT,-25.2,A*29
$GPGLL,5000.716,N,00958.279,W,170228.10,A,A*79
$IIRSA,-2.0,A,,V*56
$IIRPM,S,1,975,100,A*4A
$IIRPM,S,2,1000,100,A*73
$GPHDT,295.8,T*33
$HEROT,-45.6,A*31
$GPGGA,170228.70,5000.718,N,00958.284,W,1,10,2.3,24.6,M,52.1,M,,*40
$RAZDA,170228.80,12,09,2023,00,00*6D
$RADTM,W84,,,,,,,*15
$HEHDT,295.2,T*23
$TIROT,-85.0,A*2B
$SDDPT,7.0,,*52
$GPRMC,170229.30,A,5000.719,N,00958.288,W,17.1,294.7,2023,09,12,A,S*05
$GPROT,-103.0,A*1E
$GPGLL,5000.719,N,00958.289,W,170229.50,A,A*7C
$IIRSA,-6.0,A,,V*52
$IIRPM,S,1,975,100,A*4A
$IIRPM,S,2,1000,100,A*73
$GPHDT,293.7,T*3A
$HEROT,-128.4,A*09
$GPGGA,170230.10,5000.721,N,00958.294,W,1,10,2.4,24.6,M,52.1,M,,*43
$RAZDA,170230.20,12,09,2023,00,00*6E
$RADTM,W84,,,,,,,*15
$HEHDT,292.2,T*24
$TIROT,-152.3,A*13
$SDDPT,8.0,,*5D
$GPRMC,170230.70,A,5000.722,N,00958.298,W,17.2,291.3,2023,09,12,A,S*02
$GPROT,-157.4,A*1B
$GPGLL,5000.722,N,00958.300,W,170230.90,A,A*70
$IIRSA,-6.0,A,,V*52
$IIRPM,S,1,975,100,A*4A
$IIRPM,S,2,1000,100,A*73
$GPHDT,289.9,T*3F
$HEROT,-157.5,A*00
$GPGGA,170231.50,5000.723,N,00958.304,W,1,10,2.4,24.5,M,52.1,M,,*4F
$RAZDA,170231.60,12,09,2023,00,00*6B
$RADTM,W84,,,,,,,*15
$HEHDT,288.2,T*2F
$TIROT,-145.2,A*14
$SDDPT,8.1,,*5C
$GPRMC,170232.10,A,5000.724,N,00958.309,W,17.2,287.4,2023,09,12,A,S*09
$GPROT,-136.3,A*1B
$GPGLL,5000.724,N,00958.311,W,170232.30,A,A*7E
$IIRSA,-6.0,A,,V*52
$IIRPM,S,1,975,100,A*4A
$IIRPM,S,2,1000,100,A*73
$GPHDT,286.2,T*3B
$HEROT,-120.3,A*06
$GPGGA,170232.90,5000.725,N,00958.315,W,1,10,2.4,24.5,M,52.1,M,,*46
$RAZDA,170233.00,12,09,2023,00,00*6F
$RADTM,W84,,,,,,,*15
$HEHDT,285.0,T*20
$TIROT,-97.7,A*2F
$SDDPT,8.1,,*5C
$GPRMC,170233.50,A,5000.726,N,00958.320,W,17.2,284.5,2023,09,12,A,S*07
$GPROT,-86.8,A*2A
$GPGLL,5000.726,N,00958.322,W,170233.70,A,A*79
$IIRSA,-6.0,A,,V*52
$IIRPM,S,1,975,100,A*4A
$IIRPM,S,2,1000,100,A*73
$GPHDT,283.7,T*3B
$HEROT,-80.2,A*3C
$GPGGA,170234.30,5000.727,N,00958.326,W,1,10,2.4,24.5,M,52.1,M,,*48
$RAZDA,170234.40,12,09,2023,00,00*6C
$RADTM,W84,,,,,,,*15
$HEHDT,282.9,T*2E
$TIROT,-81.9,A*26
$SDDPT,8.7,,*5A
$GPRMC,170234.90,A,5000.728,N,00958.331,W,17.2,282.4,2023,09,12,A,S*05
$GPROT,-87.5,A*26
$GPGLL,5000.728,N,00958.332,W,170235.10,A,A*76
$IIRSA,-6.0,A,,V*52
$IIRPM,S,1,975,100,A*4A
$IIRPM,S,2,1000,100,A*73
$GPHDT,281.6,T*38
$HEROT,-105.7,A*05
$GPGGA,170235.70,5000.729,N,00958.337,W,1,10,2.4,24.6,M,52.1,M,,*40
$RAZDA,170235.80,12,09,2023,00,00*61
$RADTM,W84,,,,,,,*15
$HEHDT,280.3,T*26
$TIROT,-136.4,A*16
$SDDPT,8.7,,*5A
$GPRMC,170236.30,A,5000.729,N,00958.342,W,17.2,279.6,2023,09,12,A,S*0E
$GPROT,-148.2,A*13
$GPGLL,5000.729,N,00958.344,W,170236.50,A,A*71
$IIRSA,0.0,A,,V*79
$IIRPM,S,1,975,100,A*4A
$IIRPM,S,2,1000,100,A*73
$GPHDT,278.2,T*3A
$HEROT,-159.5,A*0E
$GPGGA,170237.10,5000.730,N,00958.348,W,1,10,2.3,24.6,M,52.1,M,,*43
$RAZDA,170237.20,12,09,2023,00,00*69
$RADTM,W84,,,,,,,*15
$HEHDT,276.4,T*28
$TIROT,-163.8,A*1A
$SDDPT,8.7,,*5A
$GPRMC,170237.70,A,5000.730,N,00958.353,W,17.2,275.6,2023,09,12,A,S*0F
$GPROT,-166.3,A*1E
$GPGLL,5000.730,N,00958.355,W,170237.90,A,A*74
$IIRSA,0.0,A,,V*79
$IIRPM,S,1,975,100,A*4A
$IIRPM,S,2,1000,100,A*73
$GPHDT,274.1,T*35
$HEROT,-158.4,A*0E
$GPGGA,170238.50,5000.730,N,00958.359,W,1,10,2.3,24.6,M,52.1,M,,*48
$RAZDA,170238.60,12,09,2023,00,00*62
$RADTM,W84,,,,,,,*15
$HEHDT,272.5,T*2D
$TIROT,-138.4,A*18
$SDDPT,8.7,,*5A
$GPRMC,170239.10,A,5000.731,N,00958.364,W,17.2,271.8,2023,09,12,A,S*08
$GPROT,-124.4,A*1F
$GPGLL,5000.731,N,00958.366,W,170239.30,A,A*71
$IIRSA,1.0,A,,V*78
$IIRPM,S,1,975,100,A*4A
$IIRPM,S,2,1000,100,A*73
$GPHDT,270.7,T*37
$HEROT,-92.2,A*3F
$GPGGA,170239.90,5000.731,N,00958.371,W,1,10,2.3,24.5,M,52.1,M,,*4D
$RAZDA,170240.00,12,09,2023,00,00*6B
$RADTM,W84,,,,,,,*15
$HEHDT,269.9,T*2B
$TIROT,-43.6,A*27
$SDDPT,8.3,,*5E
$GPRMC,170240.50,A,5000.731,N,00958.376,W,17.2,269.7,2023,09,12,A,S*07
$GPROT,-21.0,A*2F
$GPGLL,5000.731,N,00958.377,W,170240.70,A,A*7B
$IIRSA,5.0,A,,V*7C
$IIRPM,S,1,975,100,A*4A
$IIRPM,S,2,1000,100,A*73
$GPHDT,269.6,T*3E
$HEROT,16.0,A*1C
$GPGGA,170241.30,5000.731,N,00958.382,W,1,10,2.3,24.5,M,52.1,M,,*44
$RAZDA,170241.40,12,09,2023,00,00*6E
$RADTM,W84,,,,,,,*15
$HEHDT,269.9,T*2B
$TIROT,45.0,A*0A
$SDDPT,7.5,,*57
$GPRMC,170241.90,A,5000.731,N,00958.387,W,17.2,270.2,2023,09,12,A,S*09
$GPROT,47.0,A*02
$GPGLL,5000.731,N,00958.389,W,170242.10,A,A*7E
$IIRSA,0.0,A,,V*79
$IIRPM,S,1,975,100,A*4A
$IIRPM,S,2,1000,100,A*73
$GPHDT,270.6,T*36
$HEROT,46.3,A*1A
$GPGGA,170242.70,5000.731,N,00958.394,W,1,10,2.3,24.5,M,52.1,M,,*44
$RAZDA,170242.80,12,09,2023,00,00*61
$RADTM,W84,,,,,,,*15
$HEHDT,271.1,T*2A
$TIROT,36.8,A*06
$SDDPT,6.7,,*54
$GPRMC,170243.30,A,5000.731,N,00958.399,W,17.3,271.3,2023,09,12,A,S*0F
$GPROT,27.8,A*0C
$GPGLL,5000.731,N,00958.400,W,170243.50,A,A*7D
$IIRSA,2.0,A,,V*7B
$IIRPM,S,1,975,100,A*4A
$IIRPM,S,2,1000,100,A*73
$GPHDT,271.5,T*34
$HEROT,13.8,A*11
$GPGGA,170244.10,5000.731,N,00958.405,W,1,10,2.3,24.5,M,52.1,M,,*4B
$RAZDA,170244.20,12,09,2023,00,00*6D
$RADTM,W84,,,,,,,*15
$HEHDT,271.6,T*2D
$TIROT,-8.6,A*18
$SDDPT,7.3,,*51
$GPRMC,170244.70,A,5000.731,N,00958.410,W,17.3,271.5,2023,09,12,A,S*0C
$GPROT,-12.1,A*2E
$GPGLL,5000.731,N,00958.412,W,170244.90,A,A*75
$IIRSA,5.0,A,,V*7C
$IIRPM,S,1,975,100,A*4A
$IIRPM,S,2,1000,100,A*73
$GPHDT,271.4,T*35
$HEROT,-15.9,A*3B
$GPGGA,170245.50,5000.731,N,00958.416,W,1,10,2.4,24.5,M,52.1,M,,*4B
$RAZDA,170245.60,12,09,2023,00,00*68
$RADTM,W84,,,,,,,*15
$HEHDT,271.2,T*29
$TIROT,-9.7,A*18
$SDDPT,8.1,,*5C
$GPRMC,170246.10,A,5000.731,N,00958.421,W,17.3,271.2,2023,09,12,A,S*0D
$GPROT,5.8,A*3C
$GPGLL,5000.731,N,00958.423,W,170246.30,A,A*7F
$IIRSA,11.0,A,,V*49
$IIRPM,S,1,975,100,A*4A
$IIRPM,S,2,1000,100,A*73
$GPHDT,271.3,T*32
$HEROT,42.6,A*1B
$GPGGA,170246.90,5000.731,N,00958.428,W,1,10,2.4,24.5,M,52.1,M,,*49
$RAZDA,170247.00,12,09,2023,00,00*6C
$RADTM,W84,,,,,,,*15
$HEHDT,272.0,T*28
$TIROT,92.9,A*09
$SDDPT,8.1,,*5C
$GPRMC,170247.50,A,5000.731,N,00958.433,W,17.3,272.5,2023,09,12,A,S*0F
$GPROT,120.1,A*33
$GPGLL,5000.731,N,00958.434,W,170247.70,A,A*7C
$IIRSA,12.0,A,,V*4A
$IIRPM,S,1,975,100,A*4A
$IIRPM,S,2,1000,100,A*73
$GPHDT,273.7,T*34
$HEROT,158.1,A*26
$GPGGA,170248.30,5000.732,N,00958.439,W,1,10,2.4,24.6,M,52.1,M,,*4D
$RAZDA,170248.40,12,09,2023,00,00*67
$RADTM,W84,,,,,,,*15
$HEHDT,275.6,T*29
$TIROT,201.6,A*3E
$SDDPT,8.1,,*5C
$GPRMC,170248.90,A,5000.732,N,00958.444,W,17.3,276.7,2023,09,12,A,S*09
$GPROT,216.8,A*3C
$GPGLL,5000.732,N,00958.445,W,170249.10,A,A*71
$IIRSA,12.0,A,,V*4A
$IIRPM,S,1,975,100,A*4A
$IIRPM,S,2,1000,100,A*73
$GPHDT,278.7,T*3F
$HEROT,233.7,A*2E
$GPGGA,170249.70,5000.732,N,00958.450,W,1,10,2.4,24.6,M,52.1,M,,*47
$RAZDA,170249.80,12,09,2023,00,00*6A
$RADTM,W84,,,,,,,*15
$HEHDT,281.1,T*25
$TIROT,210.2,A*3A
$SDDPT,8.1,,*5C
$GPRMC,170250.30,A,5000.733,N,00958.455,W,17.3,282.3,2023,09,12,A,S*04
$GPROT,192.1,A*3A
$GPGLL,5000.733,N,00958.457,W,170250.50,A,A*7F
$IIRSA,-1.0,A,,V*55
$IIRPM,S,1,975,100,A*4A
$IIRPM,S,2,1000,100,A*73
$GPHDT,283.9,T*35
$HEROT,157.2,A*2A
$GPGGA,170251.10,5000.734,N,00958.462,W,1,10,2.5,24.6,M,52.1,M,,*4E
$RAZDA,170251.20,12,09,2023,00,00*69
$RADTM,W84,,,,,,,*15
$HEHDT,285.5,T*25
$TIROT,118.9,A*3A
$SDDPT,8.1,,*5C
$GPRMC,170251.70,A,5000.735,N,00958.466,W,17.3,286.1,2023,09,12,A,S*01
$GPROT,97.6,A*09
$GPGLL,5000.735,N,00958.468,W,170251.90,A,A*78
$IIRSA,7.0,A,,V*7E
$IIRPM,S,1,975,100,A*4A
$IIRPM,S,2,1000,100,A*73
$GPHDT,287.0,T*38
$HEROT,85.9,A*1F
$GPGGA,170252.50,5000.736,N,00958.472,W,1,9,2.5,24.6,M,52.1,M,,*72
$RAZDA,170252.60,12,09,2023,00,00*6E
$RADTM,W84,,,,,,,*15
$HEHDT,287.9,T*2B
$TIROT,80.2,A*01
$SDDPT,7.5,,*57
$GPRMC,170253.10,A,5000.737,N,00958.477,W,17.3,288.3,2023,09,12,A,S*0B
$GPROT,82.7,A*0C
$GPGLL,5000.737,N,00958.479,W,170253.30,A,A*72
$IIRSA,7.0,A,,V*7E
$IIRPM,S,1,975,100,A*4A
$IIRPM,S,2,1000,100,A*73
$GPHDT,289.1,T*37
$HEROT,92.3,A*13
$GPGGA,170253.90,5000.738,N,00958.483,W,1,9,2.4,24.6,M,52.1,M,,*7E
$RAZDA,170254.00,12,09,2023,00,00*6E
$RADTM,W84,,,,,,,*15
$HEHDT,290.1,T*25
$TIROT,95.4,A*03
$SDDPT,7.1,,*53
$GPRMC,170254.50,A,5000.739,N,00958.488,W,17.3,290.7,2023,09,12,A,S*0B
$GPROT,98.2,A*02
$GPGLL,5000.740,N,00958.489,W,170254.70,A,A*7E
$IIRSA,6.0,A,,V*7F
$IIRPM,S,1,975,100,A*4A
$IIRPM,S,2,1000,100,A*73
$GPHDT,291.6,T*39
$HEROT,122.0,A*2A
$GPGGA,170255.30,5000.741,N,00958.494,W,1,9,2.4,24.6,M,52.1,M,,*7A
$RAZDA,170255.40,12,09,2023,00,00*6B
$RADTM,W84,,,,,,,*15
$HEHDT,293.2,T*25
$TIROT,158.3,A*34
$SDDPT,6.4,,*57
$GPRMC,170255.90,A,5000.742,N,00958.498,W,17.3,294.0,2023,09,12,A,S*08
$GPROT,174.4,A*37
$GPGLL,5000.743,N,00958.500,W,170256.10,A,A*79
$IIRSA,8.0,A,,V*71
$IIRPM,S,1,975,100,A*4A
$IIRPM,S,2,1000,100,A*73
$GPHDT,295.7,T*3C
$HEROT,194.5,A*22
$GPGGA,170256.70,5000.744,N,00958.504,W,1,8,2.3,24.5,M,52.1,M,,*75
$RAZDA,170256.80,12,09,2023,00,00*64
$RADTM,W84,,,,,,,*15
$HEHDT,297.9,T*2A
$TIROT,205.1,A*3D
$SDDPT,5.2,,*52
$GPRMC,170257.30,A,5000.745,N,00958.509,W,17.3,299.0,2023,09,12,A,S*03
$GPROT,203.8,A*38
$GPGLL,5000.746,N,00958.510,W,170257.50,A,A*78
$IIRSA,8.0,A,,V*71
$IIRPM,S,1,975,100,A*4A
$IIRPM,S,2,1000,100,A*73
$GPHDT,300.9,T*3F
$HEROT,193.9,A*29
$GPGGA,170258.10,5000.748,N,00958.514,W,1,8,2.3,24.5,M,52.1,M,,*70
$RAZDA,170258.20,12,09,2023,00,00*60
$RADTM,W84,,,,,,,*15
$HEHDT,302.9,T*27
$TIROT,175.7,A*3F
$SDDPT,4.6,,*57
$GPRMC,170258.70,A,5000.749,N,00958.519,W,17.3,303.8,2023,09,12,A,S*0F
$GPROT,166.5,A*35
$GPGLL,5000.750,N,00958.520,W,170258.90,A,A*7F
$IIRSA,8.0,A,,V*71
$IIRPM,S,1,975,100,A*4A
$IIRPM,S,2,1000,100,A*73
$GPHDT,305.3,T*30
$HEROT,148.8,A*2E
$GPGGA,170259.50,5000.752,N,00958.524,W,1,8,2.3,24.5,M,52.1,M,,*7D
$RAZDA,170259.60,12,09,2023,00,00*65
$RADTM,W84,,,,,,,*15
$HEHDT,306.9,T*23
$TIROT,127.2,A*3D
$SDDPT,4.6,,*57
$GPRMC,170300.10,A,5000.754,N,00958.528,W,17.3,307.6,2023,09,12,A,S*01
$GPROT,123.8,A*39
$GPGLL,5000.754,N,00958.529,W,170300.30,A,A*74
$IIRSA,8.0,A,,V*71
$IIRPM,S,1,975,100,A*4A
$IIRPM,S,2,1000,100,A*73
$GPHDT,308.7,T*39
$HEROT,123.6,A*2D
$GPGGA,170300.90,5000.756,N,00958.533,W,1,8,2.4,24.5,M,52.1,M,,*79
$RAZDA,170301.00,12,09,2023,00,00*6F
$RADTM,W84,,,,,,,*15
$HEHDT,310.1,T*2C
$TIROT,138.2,A*33
$SDDPT,6.4,,*57
$GPRMC,170301.50,A,5000.758,N,00958.537,W,17.3,310.9,2023,09,12,A,S*0F
$GPROT,150.3,A*36
$GPGLL,5000.759,N,00958.538,W,170301.70,A,A*7C
$IIRSA,8.0,A,,V*71
$IIRPM,S,1,975,100,A*4A
$IIRPM,S,2,1000,100,A*73
$GPHDT,312.3,T*36
$HEROT,173.3,A*2D
$GPGGA,170302.30,5000.761,N,00958.542,W,1,8,2.4,24.5,M,52.1,M,,*73
$RAZDA,170302.40,12,09,2023,00,00*68
$RADTM,W84,,,,,,,*15
$HEHDT,314.3,T*2A
$TIROT,198.5,A*3E
$SDDPT,7.9,,*5B
$GPRMC,170302.90,A,5000.763,N,00958.545,W,17.3,315.5,2023,09,12,A,S*04
$GPROT,216.2,A*36
$GPGLL,5000.764,N,00958.546,W,170303.10,A,A*7F
$IIRSA,2.0,A,,V*7B
$IIRPM,S,1,975,100,A*4A
$IIRPM,S,2,1000,100,A*73
$GPHDT,317.3,T*33
$HEROT,223.9,A*21
$GPGGA,170303.70,5000.767,N,00958.550,W,1,9,2.4,24.5,M,52.1,M,,*72
$RAZDA,170303.80,12,09,2023,00,00*65
$RADTM,W84,,,,,,,*15
$HEHDT,319.9,T*2D
$TIROT,217.1,A*3E
$SDDPT,8.7,,*5A
$GPRMC,170304.30,A,5000.769,N,00958.553,W,17.3,321.0,2023,09,12,A,S*07
$GPROT,208.8,A*33
$GPGLL,5000.770,N,00958.554,W,170304.50,A,A*7A
$IIRSA,0.0,A,,V*79
$IIRPM,S,1,975,100,A*4A
$IIRPM,S,2,1000,100,A*73
$GPHDT,323.0,T*37
$HEROT,188.4,A*2E
$GPGGA,170305.10,5000.772,N,00958.557,W,1,9,2.4,24.6,M,52.1,M,,*72
$RAZDA,170305.20,12,09,2023,00,00*69
$RADTM,W84,,,,,,,*15
$HEHDT,324.9,T*23
$TIROT,158.1,A*36
$SDDPT,9.3,,*5F
$GPRMC,170305.70,A,5000.775,N,00958.560,W,17.3,325.7,2023,09,12,A,S*0C
$GPROT,139.2,A*38
$GPGLL,5000.776,N,00958.561,W,170305.90,A,A*77
$IIRSA,0.0,A,,V*79
$IIRPM,S,1,975,100,A*4A
$IIRPM,S,2,1000,100,A*73
$GPHDT,326.9,T*3B
$HEROT,110.2,A*29
$GPGGA,170306.50,5000.778,N,00958.563,W,1,9,2.4,24.6,M,52.1,M,,*78
$RAZDA,170306.60,12,09,2023,00,00*6E
$RADTM,W84,,,,,,,*15
$HEHDT,328.0,T*26
$TIROT,72.7,A*09
$SDDPT,8.7,,*5A
$GPRMC,170307.10,A,5000.781,N,00958.566,W,17.3,328.3,2023,09,12,A,S*0C
$GPROT,58.1,A*0D
$GPGLL,5000.782,N,00958.567,W,170307.30,A,A*72
$IIRSA,0.0,A,,V*79
$IIRPM,S,1,975,100,A*4A
$IIRPM,S,2,1000,100,A*73
$GPHDT,328.8,T*34
$HEROT,42.9,A*14
$GPGGA,170307.90,5000.785,N,00958.569,W,1,9,2.4,24.6,M,52.1,M,,*7D
$RAZDA,170308.00,12,09,2023,00,00*66
$RADTM,W84,,,,,,,*15
$HEHDT,329.2,T*25
$TIROT,32.2,A*08
$SDDPT,7.7,,*55
$GPRMC,170308.50,A,5000.787,N,00958.572,W,17.3,329.4,2023,09,12,A,S*02
$GPROT,32.1,A*01
$GPGLL,5000.788,N,00958.573,W,170308.70,A,A*76
$IIRSA,2.0,A,,V*7B
$IIRPM,S,1,975,100,A*4A
$IIRPM,S,2,1000,100,A*73
$GPHDT,329.7,T*3A
$HEROT,44.0,A*1B
$GPGGA,170309.30,5000.791,N,00958.575,W,1,9,2.5,24.6,M,52.1,M,,*70
$RAZDA,170309.40,12,09,2023,00,00*63
$RADTM,W84,,,,,,,*15
$HEHDT,330.3,T*2C
$TIROT,65.5,A*0D
$SDDPT,7.7,,*55
$GPRMC,170309.90,A,5000.794,N,00958.578,W,17.3,330.7,2023,09,12,A,S*0C
$GPROT,80.5,A*0C
$GPGLL,5000.795,N,00958.578,W,170310.10,A,A*7E
$IIRSA,2.0,A,,V*7B
$IIRPM,S,1,975,100,A*4A
$IIRPM,S,2,1000,100,A*73
$GPHDT,331.5,T*31
$HEROT,104.3,A*2D
$GPGGA,170310.70,5000.797,N,00958.581,W,1,8,2.5,24.7,M,52.1,M,,*71
$RAZDA,170310.80,12,09,2023,00,00*67
$RADTM,W84,,,,,,,*15
$HEHDT,332.8,T*25
$TIROT,129.0,A*31
$SDDPT,8.5,,*58
$GPRMC,170311.30,A,5000.800,N,00958.583,W,17.3,333.5,2023,09,12,A,S*08
$GPROT,134.7,A*30
$GPGLL,5000.801,N,00958.584,W,170311.50,A,A*7A
$IIRSA,2.0,A,,V*7B
$IIRPM,S,1,975,100,A*4A
$IIRPM,S,2,1000,100,A*73
$GPHDT,334.8,T*39
$HEROT,136.6,A*29
$GPGGA,170312.10,5000.804,N,00958.586,W,1,8,2.5,24.7,M,52.1,M,,*77
$RAZDA,170312.20,12,09,2023,00,00*6F
$RADTM,W84,,,,,,,*15
$HEHDT,336.2,T*2B
$TIROT,127.4,A*3B
$SDDPT,8.7,,*5A
$GPRMC,170312.70,A,5000.807,N,00958.588,W,17.3,336.9,2023,09,12,A,S*0A
$GPROT,118.1,A*38
$GPGLL,5000.808,N,00958.588,W,170312.90,A,A*70
$IIRSA,2.0,A,,V*7B
$IIRPM,S,1,975,100,A*4A
$IIRPM,S,2,1000,100,A*73
$GPHDT,337.9,T*3B
$HEROT,102.3,A*2B
$GPGGA,170313.50,5000.811,N,00958.590,W,1,8,2.5,24.7,M,52.1,M,,*71
$RAZDA,170313.60,12,09,2023,00,00*6A
$RADTM,W84,,,,,,,*15
$HEHDT,338.9,T*2E
$TIROT,75.8,A*01
$SDDPT,9.3,,*5F
$GPRMC,170314.10,A,5000.814,N,00958.592,W,17.3,339.3,2023,09,12,A,S*06
$GPROT,58.9,A*05
$GPGLL,5000.815,N,00958.593,W,170314.30,A,A*7A
$IIRSA,2.0,A,,V*7B
$IIRPM,S,1,975,100,A*4A
$IIRPM,S,2,1000,100,A*73
$GPHDT,339.8,T*34
$HEROT,42.1,A*1C
$GPGGA,170314.90,5000.818,N,00958.594,W,1,8,2.5,24.7,M,52.1,M,,*77
$RAZDA,170315.00,12,09,2023,00,00*6A
$RADTM,W84,,,,,,,*15
$HEHDT,340.2,T*2A
$TIROT,25.1,A*0D
$SDDPT,9.3,,*5F
$GPRMC,170315.50,A,5000.821,N,00958.596,W,17.3,340.3,2023,09,12,A,S*0F
$GPROT,22.9,A*08
$GPGLL,5000.822,N,00958.596,W,170315.70,A,A*7E
$IIRSA,2.0,A,,V*7B
$IIRPM,S,1,975,100,A*4A
$IIRPM,S,2,1000,100,A*73
$GPHDT,340.5,T*37
$HEROT,27.3,A*1D
$GPGGA,170316.30,5000.824,N,00958.598,W,1,9,2.5,24.7,M,52.1,M,,*7D
$RAZDA,170316.40,12,09,2023,00,00*6D
$RADTM,W84,,,,,,,*15
$HEHDT,340.9,T*21
$TIROT,44.1,A*0A
$SDDPT,8.7,,*5A
$GPRMC,170316.90,A,5000.827,N,00958.600,W,17.3,341.1,2023,09,12,A,S*09
$GPROT,57.0,A*03
$GPGLL,5000.828,N,00958.600,W,170317.10,A,A*7C
$IIRSA,2.0,A,,V*7B
$IIRPM,S,1,975,100,A*4A
$IIRPM,S,2,1000,100,A*73
$GPHDT,341.7,T*34
$HEROT,81.3,A*11
$GPGGA,170317.70,5000.831,N,00958.602,W,1,9,2.4,24.7,M,52.1,M,,*7D
$RAZDA,170317.80,12,09,2023,00,00*60
$RADTM,W84,,,,,,,*15
$HEHDT,342.7,T*2D
$TIROT,115.7,A*39
$SDDPT,7.7,,*55
$GPRMC,170318.30,A,5000.834,N,00958.603,W,17.3,343.3,2023,09,12,A,S*0C
$GPROT,126.5,A*31
$GPGLL,5000.835,N,00958.604,W,170318.50,A,A*7F
$IIRSA,3.0,A,,V*7A
$IIRPM,S,1,975,100,A*4A
$IIRPM,S,2,1000,100,A*73
$GPHDT,344.5,T*33
$HEROT,145.4,A*2F
$GPGGA,170319.10,5000.838,N,00958.605,W,1,9,2.4,24.6,M,52.1,M,,*7A
$RAZDA,170319.20,12,09,2023,00,00*64
$RADTM,W84,,,,,,,*15
$HEHDT,346.2,T*2C
$TIROT,147.9,A*30
$SDDPT,7.3,,*51
$GPRMC,170319.70,A,5000.841,N,00958.606,W,17.3,347.0,2023,09,12,A,S*09
$GPROT,144.6,A*36
$GPGLL,5000.843,N,00958.606,W,170319.90,A,A*71
$IIRSA,3.0,A,,V*7A
$IIRPM,S,1,975,100,A*4A
$IIRPM,S,2,1000,100,A*73
$GPHDT,348.3,T*39
$HEROT,130.9,A*20
$GPGGA,170320.50,5000.846,N,00958.607,W,1,9,2.4,24.6,M,52.1,M,,*7F
$RAZDA,170320.60,12,09,2023,00,00*6A
$RADTM,W84,,,,,,,*15
$HEHDT,349.7,T*26
$TIROT,104.0,A*3E
$SDDPT,7.6,,*54
$GPRMC,170321.10,A,5000.849,N,00958.608,W,17.3,350.2,2023,09,12,A,S*06
$GPROT,88.5,A*04
$GPGLL,5000.850,N,00958.609,W,170321.30,A,A*7D
$IIRSA,3.0,A,,V*7A
$IIRPM,S,1,975,100,A*4A
$IIRPM,S,2,1000,100,A*73
$GPHDT,351.0,T*32
$HEROT,67.7,A*1D
$GPGGA,170321.90,5000.853,N,00958.609,W,1,9,2.4,24.6,M,52.1,M,,*78
$RAZDA,170322.00,12,09,2023,00,00*6E
$RADTM,W84,,,,,,,*15
$HEHDT,351.6,T*2E
$TIROT,51.2,A*0D
$SDDPT,8.1,,*5C
$GPRMC,170322.50,A,5000.856,N,00958.610,W,17.3,351.9,2023,09,12,A,S*0C
$GPROT,41.7,A*03
$GPGLL,5000.857,N,00958.610,W,170322.70,A,A*75
$IIRSA,3.0,A,,V*7A
$IIRPM,S,1,975,100,A*4A
$IIRPM,S,2,1000,100,A*73
$GPHDT,352.2,T*33
$HEROT,37.2,A*1D
$GPGGA,170323.30,5000.860,N,00958.611,W,1,9,2.4,24.6,M,52.1,M,,*79
$RAZDA,170323.40,12,09,2023,00,00*6B
$RADTM,W84,,,,,,,*15
$HEHDT,352.7,T*2C
$TIROT,44.6,A*0D
$SDDPT,8.1,,*5C
$GPRMC,170323.90,A,5000.863,N,00958.612,W,17.3,352.9,2023,09,12,A,S*06
$GPROT,54.4,A*04
$GPGLL,5000.864,N,00958.612,W,170324.10,A,A*77
$IIRSA,3.0,A,,V*7A
$IIRPM,S,1,975,100,A*4A
$IIRPM,S,2,1000,100,A*73
$GPHDT,353.4,T*34
$HEROT,71.5,A*18
$GPGGA,170324.70,5000.867,N,00958.612,W,1,10,2.4,24.6,M,52.1,M,,*46
$RAZDA,170324.80,12,09,2023,00,00*60
$RADTM,W84,,,,,,,*15
$HEHDT,354.3,T*2E
$TIROT,103.5,A*3C
$SDDPT,7.9,,*5B
$GPRMC,170325.30,A,5000.870,N,00958.613,W,17.3,354.9,2023,09,12,A,S*0F
$GPROT,121.7,A*34
$GPGLL,5000.872,N,00958.613,W,170325.50,A,A*74
$IIRSA,3.0,A,,V*7A
$IIRPM,S,1,975,100,A*4A
$IIRPM,S,2,1000,100,A*73
$GPHDT,356.2,T*37
$HEROT,144.6,A*2C
$GPGGA,170326.10,5000.875,N,00958.613,W,1,10,2.3,24.6,M,52.1,M,,*47
$RAZDA,170326.20,12,09,2023,00,00*68
$RADTM,W84,,,,,,,*15
$HEHDT,357.8,T*26
$TIROT,156.5,A*3C
$SDDPT,6.8,,*5B
$GPRMC,170326.70,A,5000.878,N,00958.613,W,17.3,358.7,2023,09,12,A,S*02
$GPROT,157.0,A*32
$GPGLL,5000.879,N,00958.613,W,170326.90,A,A*70
$IIRSA,3.0,A,,V*7A
$IIRPM,S,1,975,100,A*4A
$IIRPM,S,2,1000,100,A*73
$GPHDT,0.0,T*35
$HEROT,151.8,A*26
$GPGGA,170327.50,5000.882,N,00958.613,W,1,10,2.3,24.5,M,52.1,M,,*49
$RAZDA,170327.60,12,09,2023,00,00*6D
$RADTM,W84,,,,,,,*15
$HEHDT,1.5,T*2B
$TIROT,134.9,A*34
$SDDPT,5.8,,*58
$GPRMC,170328.10,A,5000.885,N,00958.613,W,17.3,2.2,2023,09,12,A,S*01
$GPROT,122.7,A*37
$GPGLL,5000.886,N,00958.613,W,170328.30,A,A*74
$IIRSA,3.0,A,,V*7A
$IIRPM,S,1,975,100,A*4A
$IIRPM,S,2,1000,100,A*73
$GPHDT,3.2,T*34
$HEROT,101.4,A*2F
$GPGGA,170328.90,5000.889,N,00958.613,W,1,10,2.3,24.5,M,52.1,M,,*41
$RAZDA,170329.00,12,09,2023,00,00*65
$RADTM,W84,,,,,,,*15
$HEHDT,4.2,T*29
$TIROT,79.4,A*01
$SDDPT,6.2,,*51
$GPRMC,170329.50,A,5000.892,N,00958.613,W,17.3,4.7,2023,09,12,A,S*01
$GPROT,66.8,A*09
$GPGLL,5000.893,N,00958.613,W,170329.70,A,A*75
$IIRSA,3.0,A,,V*7A
$IIRPM,S,1,975,100,A*4A
$IIRPM,S,2,1000,100,A*73
$GPHDT,5.2,T*32
$HEROT,52.0,A*1C
$GPGGA,170330.30,5000.896,N,00958.612,W,1,10,2.3,24.5,M,52.1,M,,*4D
$RAZDA,170330.40,12,09,2023,00,00*69
$RADTM,W84,,,,,,,*15
$HEHDT,5.7,T*2D
$TIROT,43.4,A*08
$SDDPT,6.4,,*57
$GPRMC,170330.90,A,5000.899,N,00958.612,W,17.3,5.9,2023,09,12,A,S*00
$GPROT,44.7,A*06
$GPGLL,5000.900,N,00958.611,W,170331.10,A,A*73
$IIRSA,3.0,A,,V*7A
$IIRPM,S,1,975,100,A*4A
$IIRPM,S,2,1000,100,A*73
$GPHDT,6.4,T*37
$HEROT,54.0,A*1A
$GPGGA,170331.70,5000.903,N,00958.611,W,1,10,2.3,24.5,M,52.1,M,,*46
$RAZDA,170331.80,12,09,2023,00,00*64
$RADTM,W84,,,,,,,*15
$HEHDT,7.0,T*28
$TIROT,81.5,A*07
$SDDPT,6.6,,*55
$GPRMC,170332.30,A,5000.906,N,00958.610,W,17.3,7.5,2023,09,12,A,S*03
$GPROT,96.3,A*0D
$GPGLL,5000.907,N,00958.610,W,170332.50,A,A*72
$IIRSA,5.0,A,,V*7C
$IIRPM,S,1,975,100,A*4A
$IIRPM,S,2,1000,100,A*73
$GPHDT,8.5,T*38
$HEROT,125.4,A*29
$GPGGA,170333.10,5000.910,N,00958.609,W,1,9,2.3,24.5,M,52.1,M,,*71
$RAZDA,170333.20,12,09,2023,00,00*6C
$RADTM,W84,,,,,,,*15
$HEHDT,10.1,T*1F
$TIROT,155.4,A*3E
$SDDPT,6.4,,*57
$GPRMC,170333.70,A,5000.914,N,00958.608,W,17.3,10.9,2023,09,12,A,S*36
$GPROT,164.9,A*3B
$GPGLL,5000.910034,N,958.609,W,170333.90,V,N*5E
$IIRSA,5.0,A,,V*7C
$IIRPM,S,1,975,100,A*4A
$IIRPM,S,2,1000,100,A*73
$GPHDT,12.5,T*03
$HEROT,174.6,A*2F
$GPGGA,170334.50,5000.910034,N,958.609,W,0,00,,,M,0.0,M,,*79
$RAZDA,170334.60,12,09,2023,00,00*6F
$RADTM,W84,,,,,,,*15
$HEHDT,14.5,T*1F
$TIROT,164.1,A*39
$SDDPT,6.4,,*57
$GPRMC,170335.10,V,5000.910034,N,958.609,W,,,2023,09,12,A,N*03
$GPROT,151.0,A*34
$GPGLL,5000.910034,N,958.609,W,170335.30,V,N*52
$IIRSA,0.0,A,,V*79
$IIRPM,S,1,975,100,A*4A
$IIRPM,S,2,1000,100,A*73
$GPHDT,16.6,T*04
$HEROT,126.2,A*2C
$GPGGA,170335.90,5000.910034,N,958.609,W,0,00,,,M,0.0,M,,*74
$RAZDA,170336.00,12,09,2023,00,00*6B
$RADTM,W84,,,,,,,*15
$HEHDT,17.9,T*10
$TIROT,87.4,A*00
$SDDPT,6.4,,*57
$GPRMC,170336.50,V,5000.910034,N,958.609,W,,,2023,09,12,A,N*04
$GPROT,71.4,A*03
$GPGLL,5000.910034,N,958.609,W,170336.70,V,N*55
$IIRSA,0.0,A,,V*79
$IIRPM,S,1,975,100,A*4A
$IIRPM,S,2,1000,100,A*73
$GPHDT,19.0,T*0D
$HEROT,45.7,A*1D
$GPGGA,170337.30,5000.910034,N,958.609,W,0,00,,,M,0.0,M,,*7C
$RAZDA,170337.40,12,09,2023,00,00*6E
$RADTM,W84,,,,,,,*15
$HEHDT,19.4,T*13
$TIROT,22.4,A*0F
$SDDPT,6.4,,*57
$GPRMC,170337.90,V,5000.910034,N,958.609,W,,,2023,09,12,A,N*09
$GPROT,16.6,A*00
$GPGLL,5000.910034,N,958.609,W,170338.10,V,N*5D
$IIRSA,0.0,A,,V*79
$IIRPM,S,1,975,100,A*4A
$IIRPM,S,2,1000,100,A*73
$GPHDT,19.6,T*0B
$HEROT,15.4,A*1B
$GPGGA,170338.70,5000.910034,N,958.609,W,0,00,,,M,0.0,M,,*77
$RAZDA,170338.80,12,09,2023,00,00*6D
$RADTM,W84,,,,,,,*15
$HEHDT,19.8,T*1F
$TIROT,25.7,A*0B
$SDDPT,6.4,,*57
$GPRMC,170339.30,V,5000.910034,N,958.609,W,,,2023,09,12,A,N*0D
$GPROT,42.4,A*03
$GPGLL,5000.910034,N,958.609,W,170339.50,V,N*58
$IIRSA,3.0,A,,V*7A
$IIRPM,S,1,975,100,A*4A
$IIRPM,S,2,1000,100,A*73
$GPHDT,20.5,T*02
$HEROT,71.7,A*1A
$GPGGA,170340.10,5000.910034,N,958.609,W,0,00,,,M,0.0,M,,*7E
$RAZDA,170340.20,12,09,2023,00,00*68
$RADTM,W84,,,,,,,*15
$HEHDT,21.4,T*18
$TIROT,104.4,A*3A
$SDDPT,6.4,,*57
$GPRMC,170340.70,V,5000.910034,N,958.609,W,,,2023,09,12,A,N*07
$GPROT,118.0,A*39
$GPGLL,5000.910034,N,958.609,W,170340.90,V,N*5A
$IIRSA,3.0,A,,V*7A
$IIRPM,S,1,975,100,A*4A
$IIRPM,S,2,1000,100,A*73
$GPHDT,23.1,T*05
$HEROT,134.2,A*2F
$GPGGA,170341.50,5000.910034,N,958.609,W,0,00,,,M,0.0,M,,*7B
$RAZDA,170341.60,12,09,2023,00,00*6D
$RADTM,W84,,,,,,,*15
$HEHDT,24.6,T*1F
$TIROT,140.3,A*3D
$SDDPT,5.8,,*58
$GPRMC,170342.10,V,5000.910034,N,958.609,W,,,2023,09,12,A,N*03
$GPROT,136.9,A*3C
$GPGLL,5000.910034,N,958.609,W,170342.30,V,N*52
$IIRSA,3.0,A,,V*7A
$IIRPM,S,1,975,100,A*4A
$IIRPM,S,2,1000,100,A*73
$GPHDT,26.6,T*07
$HEROT,123.0,A*2B
$GPGGA,170342.90,5000.910034,N,958.609,W,0,00,,,M,0.0,M,,*74
$RAZDA,170343.00,12,09,2023,00,00*69
$RADTM,W84,,,,,,,*15
$HEHDT,27.8,T*12
$TIROT,100.6,A*3C
$SDDPT,5.5,,*55
$GPRMC,170343.50,V,5000.910034,N,958.609,W,,,2023,09,12,A,N*06
$GPROT,90.4,A*0C
$GPGLL,5000.910034,N,958.609,W,170343.70,V,N*57
$IIRSA,3.0,A,,V*7A
$IIRPM,S,1,975,100,A*4A
$IIRPM,S,2,1000,100,A*73
$GPHDT,29.1,T*0F
$HEROT,64.6,A*1F
$GPGGA,170344.30,5000.910034,N,958.609,W,0,00,,,M,0.0,M,,*78
$RAZDA,170344.40,12,09,2023,00,00*6A
$RADTM,W84,,,,,,,*15
$HEHDT,29.7,T*13
$TIROT,43.2,A*0E
$SDDPT,5.2,,*52
$GPRMC,170344.90,V,5000.910034,N,958.609,W,,,2023,09,12,A,N*0D
$GPROT,34.3,A*05
$GPGLL,5000.910034,N,958.609,W,170345.10,V,N*57
$IIRSA,0.0,A,,V*79
$IIRPM,S,1,975,100,A*4A
$IIRPM,S,2,1000,100,A*73
$GPHDT,30.2,T*04
$HEROT,22.3,A*18
$GPGGA,170345.70,5000.910034,N,958.609,W,0,00,,,M,0.0,M,,*7D
$RAZDA,170345.80,12,09,2023,00,00*67
$RADTM,W84,,,,,,,*15
$HEHDT,30.4,T*18
$TIROT,22.0,A*0B
$SDDPT,5.6,,*56
$GPRMC,170346.30,V,5000.910034,N,958.609,W,,,2023,09,12,A,N*05
$GPROT,28.5,A*0E
$GPGLL,5000.910034,N,958.609,W,170346.50,V,N*50
$IIRSA,0.0,A,,V*79
$IIRPM,S,1,975,100,A*4A
$IIRPM,S,2,1000,100,A*73
$GPHDT,30.8,T*0E
$HEROT,39.4,A*15
$GPGGA,170347.10,5000.910034,N,958.609,W,0,00,,,M,0.0,M,,*79
$RAZDA,170347.20,12,09,2023,00,00*6F
$RADTM,W84,,,,,,,*15
$HEHDT,31.4,T*19
$TIROT,63.6,A*08
$SDDPT,6.4,,*57
$GPRMC,170347.70,V,5000.910034,N,958.609,W,,,2023,09,12,A,N*00
$GPROT,77.7,A*06
$GPGLL,5000.910034,N,958.609,W,170347.90,V,N*5D
$IIRSA,0.0,A,,V*79
$IIRPM,S,1,975,100,A*4A
$IIRPM,S,2,1000,100,A*73
$GPHDT,32.5,T*01
$HEROT,98.1,A*1B
$GPGGA,170348.50,5000.910034,N,958.609,W,0,00,,,M,0.0,M,,*72
$RAZDA,170348.60,12,09,2023,00,00*64
$RADTM,W84,,,,,,,*15
$HEHDT,33.7,T*18
$TIROT,108.5,A*37
$SDDPT,6.7,,*54
$GPRMC,170349.10,V,5000.910034,N,958.609,W,,,2023,09,12,A,N*08
$GPROT,108.5,A*3D
$GPGLL,5000.910034,N,958.609,W,170349.30,V,N*59
$IIRSA,0.0,A,,V*79
$IIRPM,S,1,975,100,A*4A
$IIRPM,S,2,1000,100,A*73
$GPHDT,35.3,T*00
$HEROT,100.4,A*2E
$GPGGA,170349.90,5000.910034,N,958.609,W,0,00,,,M,0.0,M,,*7F
$RAZDA,170350.00,12,09,2023,00,00*6B
$RADTM,W84,,,,,,,*15
$HEHDT,36.3,T*19
$TIROT,78.6,A*02
$SDDPT,7.0,,*52
$GPRMC,170350.50,V,5000.910034,N,958.609,W,,,2023,09,12,A,N*04
$GPROT,59.4,A*09
$GPGLL,5000.910034,N,958.609,W,170350.70,V,N*55
$IIRSA,-4.0,A,,V*50
$IIRPM,S,1,975,100,A*4A
$IIRPM,S,2,1000,100,A*73
$GPHDT,37.1,T*00
$HEROT,25.0,A*1C
$GPGGA,170351.30,5000.910034,N,958.609,W,0,00,,,M,0.0,M,,*7C
$RAZDA,170351.40,12,09,2023,00,00*6E
$RADTM,W84,,,,,,,*15
$HEHDT,37.2,T*19
$TIROT,-23.8,A*2F
$SDDPT,7.0,,*52
$GPRMC,170351.90,V,5000.910034,N,958.609,W,,,2023,09,12,A,N*09
$GPROT,-43.4,A*2F
$GPGLL,5000.910034,N,958.609,W,170352.10,V,N*51
$IIRSA,-4.0,A,,V*50
$IIRPM,S,1,975,100,A*4A
$IIRPM,S,2,1000,100,A*73
$GPHDT,36.6,T*06
$HEROT,-65.1,A*34
$GPGGA,170352.70,5000.910034,N,958.609,W,0,00,,,M,0.0,M,,*7B
$RAZDA,170352.80,12,09,2023,00,00*61
$RADTM,W84,,,,,,,*15
$HEHDT,35.8,T*11
$TIROT,-77.8,A*2E
$SDDPT,7.0,,*52
$GPRMC,170353.30,V,5000.910034,N,958.609,W,,,2023,09,12,A,N*01
$GPROT,-78.1,A*22
$GPGLL,5000.910034,N,958.609,W,170353.50,V,N*54
$IIRSA,0.0,A,,V*79
$IIRPM,S,1,975,100,A*4A
$IIRPM,S,2,1000,100,A*73
$GPHDT,34.7,T*05
$HEROT,-64.4,A*30
$GPGGA,170354.10,5000.910034,N,958.609,W,0,00,,,M,0.0,M,,*7B
$RAZDA,170354.20,12,09,2023,00,00*6D
$RADTM,W84,,,,,,,*15
$HEHDT,34.1,T*19
$TIROT,-33.2,A*24
$SDDPT,7.0,,*52
$GPRMC,170354.70,V,5000.910034,N,958.609,W,,,2023,09,12,A,N*02
$GPROT,-18.3,A*26
$GPGLL,5000.910034,N,958.609,W,170354.90,V,N*5F
$IIRSA,0.0,A,,V*79
$IIRPM,S,1,975,100,A*4A
$IIRPM,S,2,1000,100,A*73
$GPHDT,33.9,T*0C
$HEROT,6.4,A*29
$GPGGA,170355.50,5000.910034,N,958.609,W,0,00,,,M,0.0,M,,*7E
$RAZDA,170355.60,12,09,2023,00,00*68
$RADTM,W84,,,,,,,*15
$HEHDT,34.0,T*18
$TIROT,27.7,A*09
$SDDPT,6.5,,*56
$GPRMC,170356.10,V,5000.910034,N,958.609,W,,,2023,09,12,A,N*06
$GPROT,36.2,A*06
$GPGLL,5000.910034,N,958.609,W,170356.30,V,N*57
$IIRSA,0.0,A,,V*79
$IIRPM,S,1,975,100,A*4A
$IIRPM,S,2,1000,100,A*73
$GPHDT,34.5,T*07
$HEROT,40.8,A*17
$GPGGA,170356.90,5000.910034,N,958.609,W,0,00,,,M,0.0,M,,*71
$RAZDA,170357.00,12,09,2023,00,00*6C
$RADTM,W84,,,,,,,*15
$HEHDT,35.0,T*19
$TIROT,35.8,A*05
$SDDPT,6.2,,*51
$GPRMC,170357.50,V,5000.910034,N,958.609,W,,,2023,09,12,A,N*03
$GPROT,29.4,A*0E
$GPGLL,5000.910034,N,958.609,W,170357.70,V,N*52
$IIRSA,2.0,A,,V*7B
$IIRPM,S,1,975,100,A*4A
$IIRPM,S,2,1000,100,A*73
$GPHDT,35.4,T*07
$HEROT,18.5,A*17
$GPGGA,170358.30,5000.910034,N,958.609,W,0,00,,,M,0.0,M,,*75
$RAZDA,170358.40,12,09,2023,00,00*67
$RADTM,W84,,,,,,,*15
$HEHDT,35.5,T*1C
$TIROT,-3.0,A*15
$SDDPT,5.8,,*58
$GPRMC,170358.90,V,5000.910034,N,958.609,W,,,2023,09,12,A,N*00
$GPROT,-10.7,A*2A
$GPGLL,5000.910034,N,958.609,W,170359.10,V,N*5A
$IIRSA,4.0,A,,V*7D
$IIRPM,S,1,975,100,A*4A
$IIRPM,S,2,1000,100,A*73
$GPHDT,35.3,T*00
$HEROT,-27.5,A*36
$GPGGA,170359.70,5000.910034,N,958.609,W,0,00,,,M,0.0,M,,*70
$RAZDA,170359.80,12,09,2023,00,00*6A
$RADTM,W84,,,,,,,*15
$HEHDT,35.0,T*19
$TIROT,-25.7,A*26
$SDDPT,5.5,,*55
$GPRMC,170400.30,V,5000.910034,N,958.609,W,,,2023,09,12,A,N*00
$GPROT,-19.7,A*23
$GPGLL,5000.910034,N,958.609,W,170400.50,V,N*55
$IIRSA,6.0,A,,V*7F
$IIRPM,S,1,975,100,A*4A
$IIRPM,S,2,1000,100,A*73
$GPHDT,34.7,T*05
$HEROT,-2.5,A*01
$GPGGA,170401.10,5000.910034,N,958.609,W,0,00,,,M,0.0,M,,*7C
$RAZDA,170401.20,12,09,2023,00,00*6A
$RADTM,W84,,,,,,,*15
$HEHDT,34.8,T*10
$TIROT,28.9,A*08
$SDDPT,5.2,,*52
$GPRMC,170401.70,V,5000.910034,N,958.609,W,,,2023,09,12,A,N*05
$GPROT,50.2,A*06
$GPGLL,5000.910034,N,958.609,W,170401.90,V,N*58
$IIRSA,11.0,A,,V*49
$IIRPM,S,1,975,100,A*4A
$IIRPM,S,2,1000,100,A*73
$GPHDT,35.6,T*05
$HEROT,98.7,A*1D
$GPGGA,170402.50,5000.910034,N,958.609,W,0,00,,,M,0.0,M,,*7B
$RAZDA,170402.60,12,09,2023,00,00*6D
$RADTM,W84,,,,,,,*15
$HEHDT,36.9,T*13
$TIROT,149.1,A*36
$SDDPT,5.7,,*57
$GPRMC,170403.10,V,5000.910034,N,958.609,W,,,2023,09,12,A,N*01
$GPROT,169.1,A*3E
$GPGLL,5000.910034,N,958.609,W,170403.30,V,N*50
$IIRSA,11.0,A,,V*49
$IIRPM,S,1,975,100,A*4A
$IIRPM,S,2,1000,100,A*73
$GPHDT,39.3,T*0C
$HEROT,191.3,A*21
$GPGGA,170403.90,5000.910034,N,958.609,W,0,00,,,M,0.0,M,,*76
$RAZDA,170404.00,12,09,2023,00,00*6D
$RADTM,W84,,,,,,,*15
$HEHDT,41.3,T*19
$TIROT,207.2,A*3C
$SDDPT,6.6,,*55
$GPRMC,170404.50,V,5000.910034,N,958.609,W,,,2023,09,12,A,N*02
$GPROT,210.0,A*32
$GPGLL,5000.910034,N,958.609,W,170404.70,V,N*53
$IIRSA,11.0,A,,V*49
$IIRPM,S,1,975,100,A*4A
$IIRPM,S,2,1000,100,A*73
$GPHDT,44.4,T*01
$HEROT,206.5,A*2A
$GPGGA,170405.30,5000.910034,N,958.609,W,0,00,,,M,0.0,M,,*7A
$RAZDA,170405.40,12,09,2023,00,00*68
$RADTM,W84,,,,,,,*15
$HEHDT,46.6,T*1B
$TIROT,194.1,A*36
$SDDPT,7.3,,*51
$GPRMC,170405.90,V,5000.910034,N,958.609,W,,,2023,09,12,A,N*0F
$GPROT,180.1,A*39
$GPGLL,5000.910034,N,958.609,W,170406.10,V,N*57
$IIRSA,11.0,A,,V*49
$IIRPM,S,1,2500,100,A*76
$IIRPM,S,2,1000,100,A*73
$GPHDT,49.3,T*0B
$HEROT,153.8,A*24
$GPGGA,170406.70,5000.910034,N,958.609,W,0,00,,,M,0.0,M,,*7D
$RAZDA,170406.80,12,09,2023,00,00*67
$RADTM,W84,,,,,,,*15
$HEHDT,51.1,T*1A
$TIROT,178.6,A*33
$SDDPT,8.0,,*5D
$GPRMC,170407.30,V,5000.910034,N,958.609,W,,,2023,09,12,A,N*07
$GPROT,191.5,A*3D
$GPGLL,5000.910034,N,958.609,W,170407.50,V,N*52
$IIRSA,11.0,A,,V*49
$IIRPM,S,1,2500,100,A*76
$IIRPM,S,2,2500,100,A*75
$GPHDT,54.0,T*04
$HEROT,223.4,A*2C
$GPGGA,170408.10,5000.910034,N,958.609,W,0,00,,,M,0.0,M,,*75
$RAZDA,170408.20,12,09,2023,00,00*63
$RADTM,W84,,,,,,,*15
$HEHDT,56.6,T*1A
$TIROT,267.5,A*3D
$SDDPT,8.7,,*5A
$GPRMC,170408.70,V,5000.910034,N,958.609,W,,,2023,09,12,A,N*0C
$GPROT,290.6,A*3C
$GPGLL,5000.910034,N,958.609,W,170408.90,V,N*51
$IIRSA,11.0,A,,V*49
$IIRPM,S,1,2500,100,A*76
$IIRPM,S,2,2500,100,A*75
$GPHDT,60.7,T*04
$HEROT,325.4,A*2B
$GPGGA,170409.50,5000.910034,N,958.609,W,0,00,,,M,0.0,M,,*70
$RAZDA,170409.60,12,09,2023,00,00*66
$RADTM,W84,,,,,,,*15
$HEHDT,64.3,T*1E
$TIROT,367.7,A*3E
$SDDPT,8.7,,*5A
$GPRMC,170410.10,V,5000.910034,N,958.609,W,,,2023,09,12,A,N*03
$GPROT,385.1,A*3E
$GPGLL,5000.910034,N,958.609,W,170410.30,V,N*52
$IIRSA,11.0,A,,V*49
$IIRPM,S,1,2500,100,A*76
$IIRPM,S,2,2500,100,A*75
$GPHDT,69.8,T*02
$HEROT,406.2,A*2B
$GPGGA,170410.90,5000.910034,N,958.609,W,0,00,,,M,0.0,M,,*74
$RAZDA,170411.00,12,09,2023,00,00*69
$RADTM,W84,,,,,,,*15
$HEHDT,74.4,T*18
$TIROT,424.8,A*31
$SDDPT,8.1,,*5C
$GPRMC,170411.50,V,5000.910034,N,958.609,W,,,2023,09,12,A,N*06
$GPROT,426.2,A*33
$GPGLL,5000.910034,N,958.609,W,170411.70,V,N*57
$IIRSA,5.9,A,,V*75
$IIRPM,S,1,2500,100,A*76
$IIRPM,S,2,2500,100,A*75
$GPHDT,80.6,T*0B
$HEROT,390.2,A*23
$GPGGA,170412.30,5000.910034,N,958.609,W,0,00,,,M,0.0,M,,*7C
$RAZDA,170412.40,12,09,2023,00,00*6E
$RADTM,W84,,,,,,,*15
$HEHDT,84.2,T*11
$TIROT,316.5,A*3A
$SDDPT,7.2,,*50
$GPRMC,170412.90,V,5000.910034,N,958.609,W,,,2023,09,12,A,N*09
$GPROT,279.7,A*3A
$GPGLL,5000.910034,N,958.609,W,170413.10,V,N*53
$IIRSA,-1.0,A,,V*55
$IIRPM,S,1,2500,100,A*76
$IIRPM,S,2,2500,100,A*75
$GPHDT,88.1,T*04
$HEROT,224.9,A*26
$GPGGA,170413.70,5000.910034,N,958.609,W,0,00,,,M,0.0,M,,*79
$RAZDA,170413.80,12,09,2023,00,00*63
$RADTM,W84,,,,,,,*15
$HEHDT,90.3,T*15
$TIROT,164.5,A*3D
$SDDPT,6.7,,*54
$GPRMC,170414.30,V,5000.910034,N,958.609,W,,,2023,09,12,A,N*05
$GPROT,135.9,A*3F
$GPGLL,5000.910034,N,958.609,W,170414.50,V,N*50
$IIRSA,-1.0,A,,V*55
$IIRPM,S,1,2500,100,A*76
$IIRPM,S,2,2500,100,A*75
$GPHDT,92.2,T*0C
$HEROT,104.8,A*26
$GPGGA,170415.10,5000.910034,N,958.609,W,0,00,,,M,0.0,M,,*79
$RAZDA,170415.20,12,09,2023,00,00*6F
$RADTM,W84,,,,,,,*15
$HEHDT,93.3,T*16
$TIROT,78.7,A*03
$SDDPT,7.7,,*55
$GPRMC,170415.70,V,5000.910034,N,958.609,W,,,2023,09,12,A,N*00
$GPROT,72.0,A*04
$GPGLL,5000.910034,N,958.609,W,170415.90,V,N*5D
$IIRSA,-1.0,A,,V*55
$IIRPM,S,1,2500,100,A*76
$IIRPM,S,2,2500,100,A*75
$GPHDT,94.3,T*0B
$HEROT,69.4,A*10
$GPGGA,170416.50,5000.910034,N,958.609,W,0,00,,,M,0.0,M,,*7E
$RAZDA,170416.60,12,09,2023,00,00*68
$RADTM,W84,,,,,,,*15
$HEHDT,95.1,T*12
$TIROT,80.1,A*02
$SDDPT,8.7,,*5A
$GPRMC,170417.10,V,5000.910034,N,958.609,W,,,2023,09,12,A,N*04
$GPROT,83.3,A*09
$GPGLL,5000.910034,N,958.609,W,170417.30,V,N*55
$IIRSA,-4.0,A,,V*50
$IIRPM,S,1,2500,100,A*76
$IIRPM,S,2,2500,100,A*75
$GPHDT,96.3,T*09
$HEROT,77.6,A*1D
$GPGGA,170417.90,5000.910034,N,958.609,W,0,00,,,M,0.0,M,,*73
$RAZDA,170418.00,12,09,2023,00,00*60
$RADTM,W84,,,,,,,*15
$HEHDT,97.1,T*10
$TIROT,55.5,A*0E
$SDDPT,9.3,,*5F
$GPRMC,170418.50,V,5000.910034,N,958.609,W,,,2023,09,12,A,N*0F
$GPROT,39.3,A*08
$GPGLL,5000.910034,N,958.609,W,170418.70,V,N*5E
$IIRSA,-8.0,A,,V*5C
$IIRPM,S,1,2500,100,A*76
$IIRPM,S,2,2500,100,A*75
$GPHDT,97.6,T*0D
$HEROT,1.0,A*2A
$GPGGA,170419.30,5000.910034,N,958.609,W,0,00,,,M,0.0,M,,*77
$RAZDA,170419.40,12,09,2023,00,00*65
$RADTM,W84,,,,,,,*15
$HEHDT,97.4,T*15
$TIROT,-52.6,A*27
$SDDPT,9.3,,*5F
$GPRMC,170419.90,A,5001.073,N,00958.327,W,28.0,97.1,2023,09,12,A,S*3E
$GPROT,-83.6,A*21
$GPGLL,5001.073,N,00958.324,W,170420.10,A,A*7B
$IIRSA,-8.0,A,,V*5C
$IIRPM,S,1,2500,100,A*76
$IIRPM,S,2,2500,100,A*75
$GPHDT,96.2,T*08
$HEROT,-136.6,A*04
